{
	"RFSStation" : {
		"type" : "FeatureCollection",
		"features" : [
			{
				"type" : "Feature",
				"geometry" : {
					"type" : "Point",
					"coordinates" : [ 149.59854793903625, -32.611162561945 ]
				},
				"properties" : {
					"fid" : 1,
					"stationid" : 0,
					"stationnam" : "Mudgee - HQ",
					"stationtyp" : 1,
					"brigadeid" : 15719,
					"lastupdate" : null,
					"dateverifi" : null
				}
			},
			{
				"type" : "Feature",
				"geometry" : {
					"type" : "Point",
					"coordinates" : [ 149.9361650318908, -32.16914818828673 ]
				},
				"properties" : {
					"fid" : 2,
					"stationid" : 0,
					"stationnam" : "Munmurra",
					"stationtyp" : 1,
					"brigadeid" : 15701,
					"lastupdate" : null,
					"dateverifi" : null
				}
			},
			{
				"type" : "Feature",
				"geometry" : {
					"type" : "Point",
					"coordinates" : [ 149.97432679074885, -32.8049527050429 ]
				},
				"properties" : {
					"fid" : 3,
					"stationid" : 0,
					"stationnam" : "Rylstone",
					"stationtyp" : 1,
					"brigadeid" : 15724,
					"lastupdate" : null,
					"dateverifi" : null
				}
			},
			{
				"type" : "Feature",
				"geometry" : {
					"type" : "Point",
					"coordinates" : [ 146.1631988094775, -34.17606181872002 ]
				},
				"properties" : {
					"fid" : 6,
					"stationid" : 0,
					"stationnam" : "Myall Park",
					"stationtyp" : 1,
					"brigadeid" : 5505,
					"lastupdate" : null,
					"dateverifi" : null
				}
			},
			{
				"type" : "Feature",
				"geometry" : {
					"type" : "Point",
					"coordinates" : [ 146.392730763514, -34.51151063892291 ]
				},
				"properties" : {
					"fid" : 7,
					"stationid" : 0,
					"stationnam" : "Five Bough / Stony Point",
					"stationtyp" : 1,
					"brigadeid" : 7603,
					"lastupdate" : null,
					"dateverifi" : null
				}
			},
			{
				"type" : "Feature",
				"geometry" : {
					"type" : "Point",
					"coordinates" : [ 149.93117989463653, -30.339818160455945 ]
				},
				"properties" : {
					"fid" : 8,
					"stationid" : 0,
					"stationnam" : "Bullawa-Eulah Creek",
					"stationtyp" : 1,
					"brigadeid" : 9209,
					"lastupdate" : null,
					"dateverifi" : null
				}
			},
			{
				"type" : "Feature",
				"geometry" : {
					"type" : "Point",
					"coordinates" : [ 149.98147741724907, -32.00477472002818 ]
				},
				"properties" : {
					"fid" : 9,
					"stationid" : 0,
					"stationnam" : "Cassilis",
					"stationtyp" : 1,
					"brigadeid" : 15505,
					"lastupdate" : null,
					"dateverifi" : null
				}
			},
			{
				"type" : "Feature",
				"geometry" : {
					"type" : "Point",
					"coordinates" : [ 149.5594479957285, -34.25063101363153 ]
				},
				"properties" : {
					"fid" : 10,
					"stationid" : 0,
					"stationnam" : "Fullerton",
					"stationtyp" : 1,
					"brigadeid" : 15915,
					"lastupdate" : null,
					"dateverifi" : null
				}
			},
			{
				"type" : "Feature",
				"geometry" : {
					"type" : "Point",
					"coordinates" : [ 149.60980507954088, -34.50192416178878 ]
				},
				"properties" : {
					"fid" : 11,
					"stationid" : 0,
					"stationnam" : "Roslyn",
					"stationtyp" : 1,
					"brigadeid" : 15925,
					"lastupdate" : null,
					"dateverifi" : null
				}
			},
			{
				"type" : "Feature",
				"geometry" : {
					"type" : "Point",
					"coordinates" : [ 152.74595320787435, -30.622092405411927 ]
				},
				"properties" : {
					"fid" : 12,
					"stationid" : 0,
					"stationnam" : "Argent's Hill",
					"stationtyp" : 1,
					"brigadeid" : 9101,
					"lastupdate" : null,
					"dateverifi" : null
				}
			},
			{
				"type" : "Feature",
				"geometry" : {
					"type" : "Point",
					"coordinates" : [ 150.89819610186865, -29.994603753242494 ]
				},
				"properties" : {
					"fid" : 14,
					"stationid" : 0,
					"stationnam" : "Diamond Swamp",
					"stationtyp" : 1,
					"brigadeid" : 15610,
					"lastupdate" : null,
					"dateverifi" : null
				}
			},
			{
				"type" : "Feature",
				"geometry" : {
					"type" : "Point",
					"coordinates" : [ 153.00366231016756, -28.621651253308116 ]
				},
				"properties" : {
					"fid" : 15,
					"stationid" : 0,
					"stationnam" : "Kyogle FCC",
					"stationtyp" : 3,
					"brigadeid" : 7300,
					"lastupdate" : null,
					"dateverifi" : null
				}
			},
			{
				"type" : "Feature",
				"geometry" : {
					"type" : "Point",
					"coordinates" : [ 152.27509893416865, -30.74193669799002 ]
				},
				"properties" : {
					"fid" : 16,
					"stationid" : 0,
					"stationnam" : "Lower Creek",
					"stationtyp" : 1,
					"brigadeid" : 4214,
					"lastupdate" : null,
					"dateverifi" : null
				}
			},
			{
				"type" : "Feature",
				"geometry" : {
					"type" : "Point",
					"coordinates" : [ 150.9866537168957, -32.20643289411073 ]
				},
				"properties" : {
					"fid" : 17,
					"stationid" : 0,
					"stationnam" : "McCullys Gap",
					"stationtyp" : 1,
					"brigadeid" : 9011,
					"lastupdate" : null,
					"dateverifi" : null
				}
			},
			{
				"type" : "Feature",
				"geometry" : {
					"type" : "Point",
					"coordinates" : [ 152.77831467228452, -30.426703923322233 ]
				},
				"properties" : {
					"fid" : 21,
					"stationid" : 0,
					"stationnam" : "Thora",
					"stationtyp" : 1,
					"brigadeid" : 718,
					"lastupdate" : null,
					"dateverifi" : null
				}
			},
			{
				"type" : "Feature",
				"geometry" : {
					"type" : "Point",
					"coordinates" : [ 152.49824156209857, -32.17459683612351 ]
				},
				"properties" : {
					"fid" : 22,
					"stationid" : 0,
					"stationnam" : "Tuncurry",
					"stationtyp" : 1,
					"brigadeid" : 5220,
					"lastupdate" : "20180113000000",
					"dateverifi" : null
				}
			},
			{
				"type" : "Feature",
				"geometry" : {
					"type" : "Point",
					"coordinates" : [ 150.158770063088, -34.69248961212182 ]
				},
				"properties" : {
					"fid" : 23,
					"stationid" : 0,
					"stationnam" : "Wingello",
					"stationtyp" : 1,
					"brigadeid" : 13419,
					"lastupdate" : null,
					"dateverifi" : null
				}
			},
			{
				"type" : "Feature",
				"geometry" : {
					"type" : "Point",
					"coordinates" : [ 147.08861205330376, -34.30700701708062 ]
				},
				"properties" : {
					"fid" : 76,
					"stationid" : 0,
					"stationnam" : "Mirrool",
					"stationtyp" : 1,
					"brigadeid" : 1123,
					"lastupdate" : null,
					"dateverifi" : null
				}
			},
			{
				"type" : "Feature",
				"geometry" : {
					"type" : "Point",
					"coordinates" : [ 147.386906709677, -34.143940776368154 ]
				},
				"properties" : {
					"fid" : 77,
					"stationid" : 0,
					"stationnam" : "Barmedman",
					"stationtyp" : 1,
					"brigadeid" : 1104,
					"lastupdate" : null,
					"dateverifi" : null
				}
			},
			{
				"type" : "Feature",
				"geometry" : {
					"type" : "Point",
					"coordinates" : [ 141.97246046168112, -34.09863380402983 ]
				},
				"properties" : {
					"fid" : 101,
					"stationid" : 0,
					"stationnam" : "Curlwaa",
					"stationtyp" : 1,
					"brigadeid" : 14604,
					"lastupdate" : null,
					"dateverifi" : null
				}
			},
			{
				"type" : "Feature",
				"geometry" : {
					"type" : "Point",
					"coordinates" : [ 142.0434035388423, -34.094769320071066 ]
				},
				"properties" : {
					"fid" : 102,
					"stationid" : 0,
					"stationnam" : "Dareton",
					"stationtyp" : 1,
					"brigadeid" : 14605,
					"lastupdate" : null,
					"dateverifi" : null
				}
			},
			{
				"type" : "Feature",
				"geometry" : {
					"type" : "Point",
					"coordinates" : [ 142.18323102269363, -34.1698030103228 ]
				},
				"properties" : {
					"fid" : 103,
					"stationid" : 0,
					"stationnam" : "Buronga",
					"stationtyp" : 1,
					"brigadeid" : 14602,
					"lastupdate" : null,
					"dateverifi" : null
				}
			},
			{
				"type" : "Feature",
				"geometry" : {
					"type" : "Point",
					"coordinates" : [ 142.22667020386695, -34.179987793823614 ]
				},
				"properties" : {
					"fid" : 104,
					"stationid" : 0,
					"stationnam" : "Gol Gol",
					"stationtyp" : 1,
					"brigadeid" : 14608,
					"lastupdate" : null,
					"dateverifi" : null
				}
			},
			{
				"type" : "Feature",
				"geometry" : {
					"type" : "Point",
					"coordinates" : [ 142.3342283489593, -32.27667534453848 ]
				},
				"properties" : {
					"fid" : 107,
					"stationid" : 0,
					"stationnam" : "Menindee HQ (Sunset Strip)",
					"stationtyp" : 1,
					"brigadeid" : 2403,
					"lastupdate" : null,
					"dateverifi" : null
				}
			},
			{
				"type" : "Feature",
				"geometry" : {
					"type" : "Point",
					"coordinates" : [ 146.3154651888674, -32.06614929030747 ]
				},
				"properties" : {
					"fid" : 113,
					"stationid" : 0,
					"stationnam" : "Nymagee",
					"stationtyp" : 1,
					"brigadeid" : 2615,
					"lastupdate" : null,
					"dateverifi" : null
				}
			},
			{
				"type" : "Feature",
				"geometry" : {
					"type" : "Point",
					"coordinates" : [ 145.87927998508331, -32.83919421028376 ]
				},
				"properties" : {
					"fid" : 114,
					"stationid" : 0,
					"stationnam" : "Mt Hope",
					"stationtyp" : 1,
					"brigadeid" : 2613,
					"lastupdate" : null,
					"dateverifi" : null
				}
			},
			{
				"type" : "Feature",
				"geometry" : {
					"type" : "Point",
					"coordinates" : [ 146.28140350666663, -32.518972999647794 ]
				},
				"properties" : {
					"fid" : 115,
					"stationid" : 0,
					"stationnam" : "Eremeran",
					"stationtyp" : 1,
					"brigadeid" : 2605,
					"lastupdate" : null,
					"dateverifi" : null
				}
			},
			{
				"type" : "Feature",
				"geometry" : {
					"type" : "Point",
					"coordinates" : [ 150.72587062572885, -30.75594959506739 ]
				},
				"properties" : {
					"fid" : 120,
					"stationid" : 0,
					"stationnam" : "Manilla",
					"stationtyp" : 1,
					"brigadeid" : 11523,
					"lastupdate" : null,
					"dateverifi" : null
				}
			},
			{
				"type" : "Feature",
				"geometry" : {
					"type" : "Point",
					"coordinates" : [ 151.05165144166082, -30.734707926699446 ]
				},
				"properties" : {
					"fid" : 121,
					"stationid" : 0,
					"stationnam" : "Watsons Creek",
					"stationtyp" : 1,
					"brigadeid" : 11538,
					"lastupdate" : null,
					"dateverifi" : null
				}
			},
			{
				"type" : "Feature",
				"geometry" : {
					"type" : "Point",
					"coordinates" : [ 150.97594060867218, -34.195221024152794 ]
				},
				"properties" : {
					"fid" : 138,
					"stationid" : 0,
					"stationnam" : "Helensburgh",
					"stationtyp" : 1,
					"brigadeid" : 13607,
					"lastupdate" : null,
					"dateverifi" : null
				}
			},
			{
				"type" : "Feature",
				"geometry" : {
					"type" : "Point",
					"coordinates" : [ 150.99944404410743, -34.21321918863627 ]
				},
				"properties" : {
					"fid" : 139,
					"stationid" : 0,
					"stationnam" : "Otford",
					"stationtyp" : 1,
					"brigadeid" : 13610,
					"lastupdate" : null,
					"dateverifi" : null
				}
			},
			{
				"type" : "Feature",
				"geometry" : {
					"type" : "Point",
					"coordinates" : [ 150.9143044588838, -34.234710357718185 ]
				},
				"properties" : {
					"fid" : 140,
					"stationid" : 0,
					"stationnam" : "Darkes Forest",
					"stationtyp" : 1,
					"brigadeid" : 13604,
					"lastupdate" : null,
					"dateverifi" : null
				}
			},
			{
				"type" : "Feature",
				"geometry" : {
					"type" : "Point",
					"coordinates" : [ 150.98229162545826, -34.23246311560166 ]
				},
				"properties" : {
					"fid" : 141,
					"stationid" : 0,
					"stationnam" : "Stanwell Park",
					"stationtyp" : 1,
					"brigadeid" : 13611,
					"lastupdate" : null,
					"dateverifi" : null
				}
			},
			{
				"type" : "Feature",
				"geometry" : {
					"type" : "Point",
					"coordinates" : [ 150.92971910944942, -34.30055353513802 ]
				},
				"properties" : {
					"fid" : 142,
					"stationid" : 0,
					"stationnam" : "Austinmer",
					"stationtyp" : 1,
					"brigadeid" : 13601,
					"lastupdate" : null,
					"dateverifi" : null
				}
			},
			{
				"type" : "Feature",
				"geometry" : {
					"type" : "Point",
					"coordinates" : [ 150.90865802674662, -34.3379127740753 ]
				},
				"properties" : {
					"fid" : 143,
					"stationid" : 0,
					"stationnam" : "Bulli",
					"stationtyp" : 1,
					"brigadeid" : 13602,
					"lastupdate" : null,
					"dateverifi" : null
				}
			},
			{
				"type" : "Feature",
				"geometry" : {
					"type" : "Point",
					"coordinates" : [ 150.82044354703214, -34.432555607774 ]
				},
				"properties" : {
					"fid" : 144,
					"stationid" : 0,
					"stationnam" : "Mt Kembla",
					"stationtyp" : 1,
					"brigadeid" : 13609,
					"lastupdate" : null,
					"dateverifi" : null
				}
			},
			{
				"type" : "Feature",
				"geometry" : {
					"type" : "Point",
					"coordinates" : [ 150.8162011805402, -34.46320677119416 ]
				},
				"properties" : {
					"fid" : 145,
					"stationid" : 0,
					"stationnam" : "Farmborough Heights",
					"stationtyp" : 1,
					"brigadeid" : 13605,
					"lastupdate" : null,
					"dateverifi" : null
				}
			},
			{
				"type" : "Feature",
				"geometry" : {
					"type" : "Point",
					"coordinates" : [ 151.0803554892146, -34.05915847021071 ]
				},
				"properties" : {
					"fid" : 149,
					"stationid" : 0,
					"stationnam" : "Grays Point",
					"stationtyp" : 1,
					"brigadeid" : 11304,
					"lastupdate" : null,
					"dateverifi" : null
				}
			},
			{
				"type" : "Feature",
				"geometry" : {
					"type" : "Point",
					"coordinates" : [ 151.13035711598823, -34.07764429027499 ]
				},
				"properties" : {
					"fid" : 150,
					"stationid" : 0,
					"stationnam" : "Maianbar",
					"stationtyp" : 1,
					"brigadeid" : 11309,
					"lastupdate" : null,
					"dateverifi" : null
				}
			},
			{
				"type" : "Feature",
				"geometry" : {
					"type" : "Point",
					"coordinates" : [ 151.14500750559193, -34.0842244678081 ]
				},
				"properties" : {
					"fid" : 151,
					"stationid" : 0,
					"stationnam" : "Bundeena",
					"stationtyp" : 1,
					"brigadeid" : 11301,
					"lastupdate" : null,
					"dateverifi" : null
				}
			},
			{
				"type" : "Feature",
				"geometry" : {
					"type" : "Point",
					"coordinates" : [ 151.05097368378856, -34.046734485431784 ]
				},
				"properties" : {
					"fid" : 152,
					"stationid" : 0,
					"stationnam" : "Loftus",
					"stationtyp" : 1,
					"brigadeid" : 11308,
					"lastupdate" : null,
					"dateverifi" : null
				}
			},
			{
				"type" : "Feature",
				"geometry" : {
					"type" : "Point",
					"coordinates" : [ 151.00862926892574, -34.0886186911228 ]
				},
				"properties" : {
					"fid" : 153,
					"stationid" : 0,
					"stationnam" : "Heathcote HQ",
					"stationtyp" : 1,
					"brigadeid" : 11305,
					"lastupdate" : null,
					"dateverifi" : null
				}
			},
			{
				"type" : "Feature",
				"geometry" : {
					"type" : "Point",
					"coordinates" : [ 150.99535497695075, -34.13539265197186 ]
				},
				"properties" : {
					"fid" : 154,
					"stationid" : 0,
					"stationnam" : "Waterfall",
					"stationtyp" : 1,
					"brigadeid" : 11312,
					"lastupdate" : null,
					"dateverifi" : null
				}
			},
			{
				"type" : "Feature",
				"geometry" : {
					"type" : "Point",
					"coordinates" : [ 150.35994170124854, -28.611727515118297 ]
				},
				"properties" : {
					"fid" : 180,
					"stationid" : 0,
					"stationnam" : "Boggabilla",
					"stationtyp" : 1,
					"brigadeid" : 8404,
					"lastupdate" : null,
					"dateverifi" : null
				}
			},
			{
				"type" : "Feature",
				"geometry" : {
					"type" : "Point",
					"coordinates" : [ 149.5788812902395, -28.726125972039558 ]
				},
				"properties" : {
					"fid" : 181,
					"stationid" : 0,
					"stationnam" : "Boomi",
					"stationtyp" : 1,
					"brigadeid" : 8405,
					"lastupdate" : null,
					"dateverifi" : null
				}
			},
			{
				"type" : "Feature",
				"geometry" : {
					"type" : "Point",
					"coordinates" : [ 149.25449191706852, -29.013276152271068 ]
				},
				"properties" : {
					"fid" : 182,
					"stationid" : 0,
					"stationnam" : "Weemelah",
					"stationtyp" : 1,
					"brigadeid" : 8427,
					"lastupdate" : null,
					"dateverifi" : null
				}
			},
			{
				"type" : "Feature",
				"geometry" : {
					"type" : "Point",
					"coordinates" : [ 150.1105653051448, -28.93031641487057 ]
				},
				"properties" : {
					"fid" : 183,
					"stationid" : 0,
					"stationnam" : "Tulloona",
					"stationtyp" : 1,
					"brigadeid" : 8424,
					"lastupdate" : "20190320000000",
					"dateverifi" : null
				}
			},
			{
				"type" : "Feature",
				"geometry" : {
					"type" : "Point",
					"coordinates" : [ 149.6331099770439, -29.074052779509568 ]
				},
				"properties" : {
					"fid" : 184,
					"stationid" : 0,
					"stationnam" : "Garah",
					"stationtyp" : 1,
					"brigadeid" : 8411,
					"lastupdate" : null,
					"dateverifi" : null
				}
			},
			{
				"type" : "Feature",
				"geometry" : {
					"type" : "Point",
					"coordinates" : [ 149.80783143867004, -29.317074194611592 ]
				},
				"properties" : {
					"fid" : 185,
					"stationid" : 0,
					"stationnam" : "Ashley",
					"stationtyp" : 1,
					"brigadeid" : 8401,
					"lastupdate" : null,
					"dateverifi" : null
				}
			},
			{
				"type" : "Feature",
				"geometry" : {
					"type" : "Point",
					"coordinates" : [ 149.852974757779, -29.479283330152022 ]
				},
				"properties" : {
					"fid" : 186,
					"stationid" : 0,
					"stationnam" : "Moree",
					"stationtyp" : 1,
					"brigadeid" : 8414,
					"lastupdate" : null,
					"dateverifi" : null
				}
			},
			{
				"type" : "Feature",
				"geometry" : {
					"type" : "Point",
					"coordinates" : [ 150.14309285994764, -29.4720086133974 ]
				},
				"properties" : {
					"fid" : 187,
					"stationid" : 0,
					"stationnam" : "Pallamallawa & District (Moree)",
					"stationtyp" : 1,
					"brigadeid" : 8419,
					"lastupdate" : null,
					"dateverifi" : null
				}
			},
			{
				"type" : "Feature",
				"geometry" : {
					"type" : "Point",
					"coordinates" : [ 150.20833433156426, -29.541975699508367 ]
				},
				"properties" : {
					"fid" : 188,
					"stationid" : 0,
					"stationnam" : "Moree (Binniguy Station)",
					"stationtyp" : 1,
					"brigadeid" : 8419,
					"lastupdate" : "20141015000000",
					"dateverifi" : null
				}
			},
			{
				"type" : "Feature",
				"geometry" : {
					"type" : "Point",
					"coordinates" : [ 149.79554270203414, -29.734719188226133 ]
				},
				"properties" : {
					"fid" : 189,
					"stationid" : 0,
					"stationnam" : "Gurley",
					"stationtyp" : 1,
					"brigadeid" : 8413,
					"lastupdate" : null,
					"dateverifi" : null
				}
			},
			{
				"type" : "Feature",
				"geometry" : {
					"type" : "Point",
					"coordinates" : [ 150.1502903051535, -29.791285481924664 ]
				},
				"properties" : {
					"fid" : 190,
					"stationid" : 0,
					"stationnam" : "Terry-Hie-Hie",
					"stationtyp" : 1,
					"brigadeid" : 8422,
					"lastupdate" : null,
					"dateverifi" : null
				}
			},
			{
				"type" : "Feature",
				"geometry" : {
					"type" : "Point",
					"coordinates" : [ 150.10034997437185, -29.906588332169108 ]
				},
				"properties" : {
					"fid" : 191,
					"stationid" : 0,
					"stationnam" : "Berrygil Creek",
					"stationtyp" : 1,
					"brigadeid" : 8402,
					"lastupdate" : null,
					"dateverifi" : null
				}
			},
			{
				"type" : "Feature",
				"geometry" : {
					"type" : "Point",
					"coordinates" : [ 150.39385305007826, -28.92755722468618 ]
				},
				"properties" : {
					"fid" : 192,
					"stationid" : 0,
					"stationnam" : "North Star",
					"stationtyp" : 1,
					"brigadeid" : 15640,
					"lastupdate" : null,
					"dateverifi" : null
				}
			},
			{
				"type" : "Feature",
				"geometry" : {
					"type" : "Point",
					"coordinates" : [ 150.90337555114084, -32.49098865074958 ]
				},
				"properties" : {
					"fid" : 193,
					"stationid" : 0,
					"stationnam" : "Jerrys Plains",
					"stationtyp" : 1,
					"brigadeid" : 11111,
					"lastupdate" : null,
					"dateverifi" : null
				}
			},
			{
				"type" : "Feature",
				"geometry" : {
					"type" : "Point",
					"coordinates" : [ 151.16530074173588, -32.51689841387427 ]
				},
				"properties" : {
					"fid" : 194,
					"stationid" : 0,
					"stationnam" : "Darlington",
					"stationtyp" : 1,
					"brigadeid" : 11105,
					"lastupdate" : null,
					"dateverifi" : null
				}
			},
			{
				"type" : "Feature",
				"geometry" : {
					"type" : "Point",
					"coordinates" : [ 151.19647987104932, -32.60897081249534 ]
				},
				"properties" : {
					"fid" : 195,
					"stationid" : 0,
					"stationnam" : "Whittingham",
					"stationtyp" : 1,
					"brigadeid" : 11119,
					"lastupdate" : null,
					"dateverifi" : null
				}
			},
			{
				"type" : "Feature",
				"geometry" : {
					"type" : "Point",
					"coordinates" : [ 151.02509366933762, -32.657327318442626 ]
				},
				"properties" : {
					"fid" : 196,
					"stationid" : 0,
					"stationnam" : "Bulga - Singleton",
					"stationtyp" : 1,
					"brigadeid" : 11103,
					"lastupdate" : null,
					"dateverifi" : null
				}
			},
			{
				"type" : "Feature",
				"geometry" : {
					"type" : "Point",
					"coordinates" : [ 151.10297923930054, -32.750841224183525 ]
				},
				"properties" : {
					"fid" : 197,
					"stationid" : 0,
					"stationnam" : "Broke",
					"stationtyp" : 1,
					"brigadeid" : 11102,
					"lastupdate" : null,
					"dateverifi" : null
				}
			},
			{
				"type" : "Feature",
				"geometry" : {
					"type" : "Point",
					"coordinates" : [ 150.8456581261217, -32.83796217685217 ]
				},
				"properties" : {
					"fid" : 198,
					"stationid" : 0,
					"stationnam" : "Howes Valley",
					"stationtyp" : 1,
					"brigadeid" : 11110,
					"lastupdate" : null,
					"dateverifi" : null
				}
			},
			{
				"type" : "Feature",
				"geometry" : {
					"type" : "Point",
					"coordinates" : [ 150.57592300614198, -29.540359594409196 ]
				},
				"properties" : {
					"fid" : 200,
					"stationid" : 0,
					"stationnam" : "Warialda",
					"stationtyp" : 1,
					"brigadeid" : 15636,
					"lastupdate" : null,
					"dateverifi" : null
				}
			},
			{
				"type" : "Feature",
				"geometry" : {
					"type" : "Point",
					"coordinates" : [ 150.752078454757, -29.251999019333628 ]
				},
				"properties" : {
					"fid" : 201,
					"stationid" : 0,
					"stationnam" : "Coolatai",
					"stationtyp" : 1,
					"brigadeid" : 15607,
					"lastupdate" : null,
					"dateverifi" : null
				}
			},
			{
				"type" : "Feature",
				"geometry" : {
					"type" : "Point",
					"coordinates" : [ 150.33893222434284, -29.585117626865646 ]
				},
				"properties" : {
					"fid" : 202,
					"stationid" : 0,
					"stationnam" : "Gravesend",
					"stationtyp" : 1,
					"brigadeid" : 15615,
					"lastupdate" : null,
					"dateverifi" : null
				}
			},
			{
				"type" : "Feature",
				"geometry" : {
					"type" : "Point",
					"coordinates" : [ 150.53773328106615, -29.581904896882236 ]
				},
				"properties" : {
					"fid" : 203,
					"stationid" : 0,
					"stationnam" : "Stonefield",
					"stationtyp" : 1,
					"brigadeid" : 15632,
					"lastupdate" : null,
					"dateverifi" : null
				}
			},
			{
				"type" : "Feature",
				"geometry" : {
					"type" : "Point",
					"coordinates" : [ 150.43057124596638, -29.961617072052668 ]
				},
				"properties" : {
					"fid" : 204,
					"stationid" : 0,
					"stationnam" : "Pallal",
					"stationtyp" : 1,
					"brigadeid" : 15629,
					"lastupdate" : null,
					"dateverifi" : null
				}
			},
			{
				"type" : "Feature",
				"geometry" : {
					"type" : "Point",
					"coordinates" : [ 150.18236548388006, -30.114016752551006 ]
				},
				"properties" : {
					"fid" : 205,
					"stationid" : 0,
					"stationnam" : "Rocky Creek - Gwydir",
					"stationtyp" : 1,
					"brigadeid" : 15631,
					"lastupdate" : null,
					"dateverifi" : null
				}
			},
			{
				"type" : "Feature",
				"geometry" : {
					"type" : "Point",
					"coordinates" : [ 150.44337348739663, -30.14053460936421 ]
				},
				"properties" : {
					"fid" : 206,
					"stationid" : 0,
					"stationnam" : "Upper Horton",
					"stationtyp" : 1,
					"brigadeid" : 15635,
					"lastupdate" : null,
					"dateverifi" : null
				}
			},
			{
				"type" : "Feature",
				"geometry" : {
					"type" : "Point",
					"coordinates" : [ 150.57722843414498, -30.232103546819204 ]
				},
				"properties" : {
					"fid" : 207,
					"stationid" : 0,
					"stationnam" : "Cobbadah",
					"stationtyp" : 1,
					"brigadeid" : 15606,
					"lastupdate" : null,
					"dateverifi" : null
				}
			},
			{
				"type" : "Feature",
				"geometry" : {
					"type" : "Point",
					"coordinates" : [ 150.24987899282144, -31.956222610636495 ]
				},
				"properties" : {
					"fid" : 208,
					"stationid" : 0,
					"stationnam" : "Idaville",
					"stationtyp" : 1,
					"brigadeid" : 15514,
					"lastupdate" : null,
					"dateverifi" : null
				}
			},
			{
				"type" : "Feature",
				"geometry" : {
					"type" : "Point",
					"coordinates" : [ 150.3579238492064, -32.13933624342185 ]
				},
				"properties" : {
					"fid" : 209,
					"stationid" : 0,
					"stationnam" : "Merriwa River",
					"stationtyp" : 1,
					"brigadeid" : 15518,
					"lastupdate" : null,
					"dateverifi" : null
				}
			},
			{
				"type" : "Feature",
				"geometry" : {
					"type" : "Point",
					"coordinates" : [ 150.4279307492047, -32.23575229647889 ]
				},
				"properties" : {
					"fid" : 210,
					"stationid" : 0,
					"stationnam" : "Flags Road",
					"stationtyp" : 1,
					"brigadeid" : 15530,
					"lastupdate" : null,
					"dateverifi" : null
				}
			},
			{
				"type" : "Feature",
				"geometry" : {
					"type" : "Point",
					"coordinates" : [ 150.4996787600668, -32.27155776142858 ]
				},
				"properties" : {
					"fid" : 211,
					"stationid" : 0,
					"stationnam" : "Worondi",
					"stationtyp" : 1,
					"brigadeid" : 15530,
					"lastupdate" : null,
					"dateverifi" : null
				}
			},
			{
				"type" : "Feature",
				"geometry" : {
					"type" : "Point",
					"coordinates" : [ 150.59340375737762, -32.038495509710344 ]
				},
				"properties" : {
					"fid" : 212,
					"stationid" : 0,
					"stationnam" : "Bunnan",
					"stationtyp" : 1,
					"brigadeid" : 15504,
					"lastupdate" : null,
					"dateverifi" : null
				}
			},
			{
				"type" : "Feature",
				"geometry" : {
					"type" : "Point",
					"coordinates" : [ 150.96178410785038, -32.13844827441724 ]
				},
				"properties" : {
					"fid" : 213,
					"stationid" : 0,
					"stationnam" : "Dangarfield",
					"stationtyp" : 1,
					"brigadeid" : 15507,
					"lastupdate" : null,
					"dateverifi" : null
				}
			},
			{
				"type" : "Feature",
				"geometry" : {
					"type" : "Point",
					"coordinates" : [ 150.86632767548195, -31.981020273018338 ]
				},
				"properties" : {
					"fid" : 214,
					"stationid" : 0,
					"stationnam" : "Parkville",
					"stationtyp" : 1,
					"brigadeid" : 15522,
					"lastupdate" : null,
					"dateverifi" : null
				}
			},
			{
				"type" : "Feature",
				"geometry" : {
					"type" : "Point",
					"coordinates" : [ 151.09131338930146, -32.1215368012316 ]
				},
				"properties" : {
					"fid" : 216,
					"stationid" : 0,
					"stationnam" : "Rouchel",
					"stationtyp" : 1,
					"brigadeid" : 15523,
					"lastupdate" : null,
					"dateverifi" : null
				}
			},
			{
				"type" : "Feature",
				"geometry" : {
					"type" : "Point",
					"coordinates" : [ 151.22221543909137, -31.99525436374885 ]
				},
				"properties" : {
					"fid" : 217,
					"stationid" : 0,
					"stationnam" : "Stewarts Brook",
					"stationtyp" : 1,
					"brigadeid" : 15526,
					"lastupdate" : null,
					"dateverifi" : null
				}
			},
			{
				"type" : "Feature",
				"geometry" : {
					"type" : "Point",
					"coordinates" : [ 151.23710832099235, -31.919622136004875 ]
				},
				"properties" : {
					"fid" : 218,
					"stationid" : 0,
					"stationnam" : "Moonan",
					"stationtyp" : 1,
					"brigadeid" : 15532,
					"lastupdate" : null,
					"dateverifi" : null
				}
			},
			{
				"type" : "Feature",
				"geometry" : {
					"type" : "Point",
					"coordinates" : [ 150.99884884759626, -32.01420546066419 ]
				},
				"properties" : {
					"fid" : 220,
					"stationid" : 0,
					"stationnam" : "Gundy",
					"stationtyp" : 1,
					"brigadeid" : 15512,
					"lastupdate" : null,
					"dateverifi" : null
				}
			},
			{
				"type" : "Feature",
				"geometry" : {
					"type" : "Point",
					"coordinates" : [ 150.76508555905147, -34.92976833255573 ]
				},
				"properties" : {
					"fid" : 242,
					"stationid" : 0,
					"stationnam" : "Culburra",
					"stationtyp" : 1,
					"brigadeid" : 11012,
					"lastupdate" : null,
					"dateverifi" : null
				}
			},
			{
				"type" : "Feature",
				"geometry" : {
					"type" : "Point",
					"coordinates" : [ 150.72492843839683, -34.90870794772712 ]
				},
				"properties" : {
					"fid" : 243,
					"stationid" : 0,
					"stationnam" : "Greenwell Point",
					"stationtyp" : 1,
					"brigadeid" : 11019,
					"lastupdate" : null,
					"dateverifi" : null
				}
			},
			{
				"type" : "Feature",
				"geometry" : {
					"type" : "Point",
					"coordinates" : [ 150.74245662797102, -34.84833205839192 ]
				},
				"properties" : {
					"fid" : 244,
					"stationid" : 0,
					"stationnam" : "Shoalhaven Heads",
					"stationtyp" : 1,
					"brigadeid" : 11028,
					"lastupdate" : null,
					"dateverifi" : null
				}
			},
			{
				"type" : "Feature",
				"geometry" : {
					"type" : "Point",
					"coordinates" : [ 150.51440646078964, -34.83527454799628 ]
				},
				"properties" : {
					"fid" : 245,
					"stationid" : 0,
					"stationnam" : "Cambewarra",
					"stationtyp" : 1,
					"brigadeid" : 11009,
					"lastupdate" : null,
					"dateverifi" : null
				}
			},
			{
				"type" : "Feature",
				"geometry" : {
					"type" : "Point",
					"coordinates" : [ 150.52919307250238, -34.73438458539575 ]
				},
				"properties" : {
					"fid" : 246,
					"stationid" : 0,
					"stationnam" : "Kangaroo Valley",
					"stationtyp" : 1,
					"brigadeid" : 11023,
					"lastupdate" : null,
					"dateverifi" : null
				}
			},
			{
				"type" : "Feature",
				"geometry" : {
					"type" : "Point",
					"coordinates" : [ 150.61295895139466, -34.76103433588107 ]
				},
				"properties" : {
					"fid" : 247,
					"stationid" : 0,
					"stationnam" : "Beaumont",
					"stationtyp" : 1,
					"brigadeid" : 11004,
					"lastupdate" : null,
					"dateverifi" : null
				}
			},
			{
				"type" : "Feature",
				"geometry" : {
					"type" : "Point",
					"coordinates" : [ 150.6986359013259, -34.77497292647433 ]
				},
				"properties" : {
					"fid" : 248,
					"stationid" : 0,
					"stationnam" : "Broughton Vale/Berry",
					"stationtyp" : 1,
					"brigadeid" : 11006,
					"lastupdate" : null,
					"dateverifi" : null
				}
			},
			{
				"type" : "Feature",
				"geometry" : {
					"type" : "Point",
					"coordinates" : [ 150.65918156847468, -34.6416364343904 ]
				},
				"properties" : {
					"fid" : 249,
					"stationid" : 0,
					"stationnam" : "Carrington Falls",
					"stationtyp" : 1,
					"brigadeid" : 7101,
					"lastupdate" : null,
					"dateverifi" : null
				}
			},
			{
				"type" : "Feature",
				"geometry" : {
					"type" : "Point",
					"coordinates" : [ 150.76954731785457, -34.72037984157202 ]
				},
				"properties" : {
					"fid" : 250,
					"stationid" : 0,
					"stationnam" : "Foxground",
					"stationtyp" : 1,
					"brigadeid" : 7102,
					"lastupdate" : null,
					"dateverifi" : null
				}
			},
			{
				"type" : "Feature",
				"geometry" : {
					"type" : "Point",
					"coordinates" : [ 150.82267852599335, -34.74426142843751 ]
				},
				"properties" : {
					"fid" : 251,
					"stationid" : 0,
					"stationnam" : "Gerringong",
					"stationtyp" : 1,
					"brigadeid" : 7103,
					"lastupdate" : null,
					"dateverifi" : null
				}
			},
			{
				"type" : "Feature",
				"geometry" : {
					"type" : "Point",
					"coordinates" : [ 150.7761262777057, -34.64896182344581 ]
				},
				"properties" : {
					"fid" : 252,
					"stationid" : 0,
					"stationnam" : "Jamberoo",
					"stationtyp" : 1,
					"brigadeid" : 7104,
					"lastupdate" : null,
					"dateverifi" : null
				}
			},
			{
				"type" : "Feature",
				"geometry" : {
					"type" : "Point",
					"coordinates" : [ 150.73493481439033, -34.5546897550457 ]
				},
				"properties" : {
					"fid" : 253,
					"stationid" : 0,
					"stationnam" : "Calderwood",
					"stationtyp" : 1,
					"brigadeid" : 10902,
					"lastupdate" : null,
					"dateverifi" : null
				}
			},
			{
				"type" : "Feature",
				"geometry" : {
					"type" : "Point",
					"coordinates" : [ 150.7788068059894, -34.57018952644284 ]
				},
				"properties" : {
					"fid" : 254,
					"stationid" : 0,
					"stationnam" : "Albion Park",
					"stationtyp" : 1,
					"brigadeid" : 10901,
					"lastupdate" : null,
					"dateverifi" : null
				}
			},
			{
				"type" : "Feature",
				"geometry" : {
					"type" : "Point",
					"coordinates" : [ 150.8537368871477, -34.40994509121221 ]
				},
				"properties" : {
					"fid" : 255,
					"stationid" : 0,
					"stationnam" : "Mt Keira",
					"stationtyp" : 1,
					"brigadeid" : 13608,
					"lastupdate" : null,
					"dateverifi" : null
				}
			},
			{
				"type" : "Feature",
				"geometry" : {
					"type" : "Point",
					"coordinates" : [ 151.58396392619431, -32.88949762255578 ]
				},
				"properties" : {
					"fid" : 284,
					"stationid" : 0,
					"stationnam" : "Seahampton",
					"stationtyp" : 1,
					"brigadeid" : 7511,
					"lastupdate" : "20180116000000",
					"dateverifi" : null
				}
			},
			{
				"type" : "Feature",
				"geometry" : {
					"type" : "Point",
					"coordinates" : [ 150.73294975702572, -34.04507929669583 ]
				},
				"properties" : {
					"fid" : 302,
					"stationid" : 0,
					"stationnam" : "Narellan",
					"stationtyp" : 1,
					"brigadeid" : 2104,
					"lastupdate" : null,
					"dateverifi" : null
				}
			},
			{
				"type" : "Feature",
				"geometry" : {
					"type" : "Point",
					"coordinates" : [ 150.82154143488938, -34.101360889316574 ]
				},
				"properties" : {
					"fid" : 304,
					"stationid" : 0,
					"stationnam" : "Lynwood Park",
					"stationtyp" : 1,
					"brigadeid" : 2203,
					"lastupdate" : null,
					"dateverifi" : null
				}
			},
			{
				"type" : "Feature",
				"geometry" : {
					"type" : "Point",
					"coordinates" : [ 150.81437031463838, -34.13206881614552 ]
				},
				"properties" : {
					"fid" : 315,
					"stationid" : 0,
					"stationnam" : "Wedderburn",
					"stationtyp" : 1,
					"brigadeid" : 2206,
					"lastupdate" : null,
					"dateverifi" : null
				}
			},
			{
				"type" : "Feature",
				"geometry" : {
					"type" : "Point",
					"coordinates" : [ 150.74547076516373, -34.103856504397115 ]
				},
				"properties" : {
					"fid" : 316,
					"stationid" : 0,
					"stationnam" : "Menangle Park",
					"stationtyp" : 1,
					"brigadeid" : 2204,
					"lastupdate" : null,
					"dateverifi" : null
				}
			},
			{
				"type" : "Feature",
				"geometry" : {
					"type" : "Point",
					"coordinates" : [ 150.86610351856262, -34.04085132385319 ]
				},
				"properties" : {
					"fid" : 317,
					"stationid" : 0,
					"stationnam" : "Minto Heights",
					"stationtyp" : 1,
					"brigadeid" : 2205,
					"lastupdate" : null,
					"dateverifi" : null
				}
			},
			{
				"type" : "Feature",
				"geometry" : {
					"type" : "Point",
					"coordinates" : [ 150.57276763941513, -34.32299171011959 ]
				},
				"properties" : {
					"fid" : 339,
					"stationid" : 0,
					"stationnam" : "Yanderra",
					"stationtyp" : 1,
					"brigadeid" : 13519,
					"lastupdate" : null,
					"dateverifi" : null
				}
			},
			{
				"type" : "Feature",
				"geometry" : {
					"type" : "Point",
					"coordinates" : [ 150.5902124429499, -34.302048798333914 ]
				},
				"properties" : {
					"fid" : 340,
					"stationid" : 0,
					"stationnam" : "Bargo",
					"stationtyp" : 1,
					"brigadeid" : 13502,
					"lastupdate" : null,
					"dateverifi" : null
				}
			},
			{
				"type" : "Feature",
				"geometry" : {
					"type" : "Point",
					"coordinates" : [ 150.53449251561722, -34.25390954071378 ]
				},
				"properties" : {
					"fid" : 341,
					"stationid" : 0,
					"stationnam" : "Buxton",
					"stationtyp" : 1,
					"brigadeid" : 13503,
					"lastupdate" : null,
					"dateverifi" : null
				}
			},
			{
				"type" : "Feature",
				"geometry" : {
					"type" : "Point",
					"coordinates" : [ 150.63826857713323, -34.2563074147764 ]
				},
				"properties" : {
					"fid" : 342,
					"stationid" : 0,
					"stationnam" : "Pheasants Nest",
					"stationtyp" : 1,
					"brigadeid" : 13511,
					"lastupdate" : null,
					"dateverifi" : null
				}
			},
			{
				"type" : "Feature",
				"geometry" : {
					"type" : "Point",
					"coordinates" : [ 150.69734221667, -34.238005575318276 ]
				},
				"properties" : {
					"fid" : 343,
					"stationid" : 0,
					"stationnam" : "Wilton",
					"stationtyp" : 1,
					"brigadeid" : 13518,
					"lastupdate" : null,
					"dateverifi" : null
				}
			},
			{
				"type" : "Feature",
				"geometry" : {
					"type" : "Point",
					"coordinates" : [ 150.78852083936536, -34.20167182971285 ]
				},
				"properties" : {
					"fid" : 344,
					"stationid" : 0,
					"stationnam" : "Appin",
					"stationtyp" : 1,
					"brigadeid" : 13501,
					"lastupdate" : null,
					"dateverifi" : null
				}
			},
			{
				"type" : "Feature",
				"geometry" : {
					"type" : "Point",
					"coordinates" : [ 150.5900839388229, -34.22183939639251 ]
				},
				"properties" : {
					"fid" : 345,
					"stationid" : 0,
					"stationnam" : "Tahmoor",
					"stationtyp" : 1,
					"brigadeid" : 13514,
					"lastupdate" : null,
					"dateverifi" : null
				}
			},
			{
				"type" : "Feature",
				"geometry" : {
					"type" : "Point",
					"coordinates" : [ 150.7120149616213, -34.18817834417712 ]
				},
				"properties" : {
					"fid" : 346,
					"stationid" : 0,
					"stationnam" : "Douglas Park",
					"stationtyp" : 1,
					"brigadeid" : 13505,
					"lastupdate" : null,
					"dateverifi" : null
				}
			},
			{
				"type" : "Feature",
				"geometry" : {
					"type" : "Point",
					"coordinates" : [ 150.7385348536007, -34.12448661668667 ]
				},
				"properties" : {
					"fid" : 347,
					"stationid" : 0,
					"stationnam" : "Menangle",
					"stationtyp" : 1,
					"brigadeid" : 13507,
					"lastupdate" : null,
					"dateverifi" : null
				}
			},
			{
				"type" : "Feature",
				"geometry" : {
					"type" : "Point",
					"coordinates" : [ 150.67222644609362, -34.109784963028424 ]
				},
				"properties" : {
					"fid" : 348,
					"stationid" : 0,
					"stationnam" : "Cawdor",
					"stationtyp" : 1,
					"brigadeid" : 13504,
					"lastupdate" : null,
					"dateverifi" : null
				}
			},
			{
				"type" : "Feature",
				"geometry" : {
					"type" : "Point",
					"coordinates" : [ 150.5710450716727, -34.20467199144091 ]
				},
				"properties" : {
					"fid" : 349,
					"stationid" : 0,
					"stationnam" : "Thirlmere",
					"stationtyp" : 1,
					"brigadeid" : 13517,
					"lastupdate" : null,
					"dateverifi" : null
				}
			},
			{
				"type" : "Feature",
				"geometry" : {
					"type" : "Point",
					"coordinates" : [ 150.61321569704683, -34.1704300356397 ]
				},
				"properties" : {
					"fid" : 350,
					"stationid" : 0,
					"stationnam" : "Picton",
					"stationtyp" : 1,
					"brigadeid" : 13512,
					"lastupdate" : null,
					"dateverifi" : null
				}
			},
			{
				"type" : "Feature",
				"geometry" : {
					"type" : "Point",
					"coordinates" : [ 150.52907957626158, -34.17041496929752 ]
				},
				"properties" : {
					"fid" : 351,
					"stationid" : 0,
					"stationnam" : "Lakesland",
					"stationtyp" : 1,
					"brigadeid" : 13506,
					"lastupdate" : null,
					"dateverifi" : null
				}
			},
			{
				"type" : "Feature",
				"geometry" : {
					"type" : "Point",
					"coordinates" : [ 150.51435600792357, -34.072998797280015 ]
				},
				"properties" : {
					"fid" : 352,
					"stationid" : 0,
					"stationnam" : "Oakdale",
					"stationtyp" : 1,
					"brigadeid" : 13509,
					"lastupdate" : null,
					"dateverifi" : null
				}
			},
			{
				"type" : "Feature",
				"geometry" : {
					"type" : "Point",
					"coordinates" : [ 150.5637652179907, -34.07953062995782 ]
				},
				"properties" : {
					"fid" : 353,
					"stationid" : 0,
					"stationnam" : "The Oaks",
					"stationtyp" : 1,
					"brigadeid" : 13515,
					"lastupdate" : null,
					"dateverifi" : null
				}
			},
			{
				"type" : "Feature",
				"geometry" : {
					"type" : "Point",
					"coordinates" : [ 150.63716025803961, -34.070947371747096 ]
				},
				"properties" : {
					"fid" : 354,
					"stationid" : 0,
					"stationnam" : "Mt Hunter",
					"stationtyp" : 1,
					"brigadeid" : 13508,
					"lastupdate" : null,
					"dateverifi" : null
				}
			},
			{
				"type" : "Feature",
				"geometry" : {
					"type" : "Point",
					"coordinates" : [ 150.3010508444211, -34.654704322063175 ]
				},
				"properties" : {
					"fid" : 358,
					"stationid" : 0,
					"stationnam" : "Bundanoon",
					"stationtyp" : 1,
					"brigadeid" : 13405,
					"lastupdate" : null,
					"dateverifi" : null
				}
			},
			{
				"type" : "Feature",
				"geometry" : {
					"type" : "Point",
					"coordinates" : [ 150.31787578483963, -34.61249787939048 ]
				},
				"properties" : {
					"fid" : 359,
					"stationid" : 0,
					"stationnam" : "Exeter",
					"stationtyp" : 1,
					"brigadeid" : 13410,
					"lastupdate" : null,
					"dateverifi" : null
				}
			},
			{
				"type" : "Feature",
				"geometry" : {
					"type" : "Point",
					"coordinates" : [ 150.4417324989558, -34.59390403186267 ]
				},
				"properties" : {
					"fid" : 360,
					"stationid" : 0,
					"stationnam" : "Avoca - Wingecarribee",
					"stationtyp" : 1,
					"brigadeid" : 13402,
					"lastupdate" : null,
					"dateverifi" : null
				}
			},
			{
				"type" : "Feature",
				"geometry" : {
					"type" : "Point",
					"coordinates" : [ 150.51670714152144, -34.59234791424198 ]
				},
				"properties" : {
					"fid" : 361,
					"stationid" : 0,
					"stationnam" : "Burrawang",
					"stationtyp" : 1,
					"brigadeid" : 13406,
					"lastupdate" : null,
					"dateverifi" : null
				}
			},
			{
				"type" : "Feature",
				"geometry" : {
					"type" : "Point",
					"coordinates" : [ 150.36253162823212, -34.54061041065962 ]
				},
				"properties" : {
					"fid" : 362,
					"stationid" : 0,
					"stationnam" : "Moss Vale",
					"stationtyp" : 1,
					"brigadeid" : 13416,
					"lastupdate" : null,
					"dateverifi" : null
				}
			},
			{
				"type" : "Feature",
				"geometry" : {
					"type" : "Point",
					"coordinates" : [ 150.33873335276223, -34.48397221526388 ]
				},
				"properties" : {
					"fid" : 363,
					"stationid" : 0,
					"stationnam" : "Berrima",
					"stationtyp" : 1,
					"brigadeid" : 13404,
					"lastupdate" : null,
					"dateverifi" : null
				}
			},
			{
				"type" : "Feature",
				"geometry" : {
					"type" : "Point",
					"coordinates" : [ 150.2381268411808, -34.42994964048249 ]
				},
				"properties" : {
					"fid" : 364,
					"stationid" : 0,
					"stationnam" : "Mandemar - High Range",
					"stationtyp" : 1,
					"brigadeid" : 13413,
					"lastupdate" : null,
					"dateverifi" : null
				}
			},
			{
				"type" : "Feature",
				"geometry" : {
					"type" : "Point",
					"coordinates" : [ 150.38311786259928, -34.44129181368513 ]
				},
				"properties" : {
					"fid" : 365,
					"stationid" : 0,
					"stationnam" : "Woodlands - Wingecarribee",
					"stationtyp" : 1,
					"brigadeid" : 13422,
					"lastupdate" : null,
					"dateverifi" : null
				}
			},
			{
				"type" : "Feature",
				"geometry" : {
					"type" : "Point",
					"coordinates" : [ 150.43427301918447, -34.44810649933422 ]
				},
				"properties" : {
					"fid" : 366,
					"stationid" : 0,
					"stationnam" : "Mittagong",
					"stationtyp" : 1,
					"brigadeid" : 13415,
					"lastupdate" : null,
					"dateverifi" : null
				}
			},
			{
				"type" : "Feature",
				"geometry" : {
					"type" : "Point",
					"coordinates" : [ 150.4922442535695, -34.42517183023483 ]
				},
				"properties" : {
					"fid" : 367,
					"stationid" : 0,
					"stationnam" : "Alpine",
					"stationtyp" : 1,
					"brigadeid" : 13401,
					"lastupdate" : null,
					"dateverifi" : null
				}
			},
			{
				"type" : "Feature",
				"geometry" : {
					"type" : "Point",
					"coordinates" : [ 150.4846462467269, -34.39819101412339 ]
				},
				"properties" : {
					"fid" : 368,
					"stationid" : 0,
					"stationnam" : "Colo Vale",
					"stationtyp" : 1,
					"brigadeid" : 13408,
					"lastupdate" : null,
					"dateverifi" : null
				}
			},
			{
				"type" : "Feature",
				"geometry" : {
					"type" : "Point",
					"coordinates" : [ 150.49447580521436, -34.354720031124465 ]
				},
				"properties" : {
					"fid" : 369,
					"stationid" : 0,
					"stationnam" : "Hill Top",
					"stationtyp" : 1,
					"brigadeid" : 13412,
					"lastupdate" : null,
					"dateverifi" : null
				}
			},
			{
				"type" : "Feature",
				"geometry" : {
					"type" : "Point",
					"coordinates" : [ 150.2244952530537, -34.34615557234182 ]
				},
				"properties" : {
					"fid" : 370,
					"stationid" : 0,
					"stationnam" : "Wollondilly",
					"stationtyp" : 1,
					"brigadeid" : 13420,
					"lastupdate" : null,
					"dateverifi" : null
				}
			},
			{
				"type" : "Feature",
				"geometry" : {
					"type" : "Point",
					"coordinates" : [ 150.1533837148866, -34.582937027938705 ]
				},
				"properties" : {
					"fid" : 371,
					"stationid" : 0,
					"stationnam" : "Canyonleigh",
					"stationtyp" : 1,
					"brigadeid" : 13407,
					"lastupdate" : null,
					"dateverifi" : null
				}
			},
			{
				"type" : "Feature",
				"geometry" : {
					"type" : "Point",
					"coordinates" : [ 151.48305553108798, -32.90244833845837 ]
				},
				"properties" : {
					"fid" : 377,
					"stationid" : 0,
					"stationnam" : "Mulbring",
					"stationtyp" : 1,
					"brigadeid" : 2508,
					"lastupdate" : null,
					"dateverifi" : null
				}
			},
			{
				"type" : "Feature",
				"geometry" : {
					"type" : "Point",
					"coordinates" : [ 151.3952891484755, -32.858038925494945 ]
				},
				"properties" : {
					"fid" : 378,
					"stationid" : 0,
					"stationnam" : "Kearsley",
					"stationtyp" : 1,
					"brigadeid" : 2505,
					"lastupdate" : null,
					"dateverifi" : null
				}
			},
			{
				"type" : "Feature",
				"geometry" : {
					"type" : "Point",
					"coordinates" : [ 151.4072320400268, -32.827684967326725 ]
				},
				"properties" : {
					"fid" : 379,
					"stationid" : 0,
					"stationnam" : "Neath",
					"stationtyp" : 1,
					"brigadeid" : 2509,
					"lastupdate" : null,
					"dateverifi" : null
				}
			},
			{
				"type" : "Feature",
				"geometry" : {
					"type" : "Point",
					"coordinates" : [ 151.28366838798587, -32.7959786149609 ]
				},
				"properties" : {
					"fid" : 380,
					"stationid" : 0,
					"stationnam" : "Pokolbin",
					"stationtyp" : 1,
					"brigadeid" : 2511,
					"lastupdate" : null,
					"dateverifi" : null
				}
			},
			{
				"type" : "Feature",
				"geometry" : {
					"type" : "Point",
					"coordinates" : [ 151.34278661950688, -32.78187743953214 ]
				},
				"properties" : {
					"fid" : 381,
					"stationid" : 0,
					"stationnam" : "Rothbury",
					"stationtyp" : 1,
					"brigadeid" : 2513,
					"lastupdate" : null,
					"dateverifi" : null
				}
			},
			{
				"type" : "Feature",
				"geometry" : {
					"type" : "Point",
					"coordinates" : [ 151.5597983199366, -32.82356492212284 ]
				},
				"properties" : {
					"fid" : 382,
					"stationid" : 0,
					"stationnam" : "Benwerrin",
					"stationtyp" : 1,
					"brigadeid" : 2501,
					"lastupdate" : null,
					"dateverifi" : null
				}
			},
			{
				"type" : "Feature",
				"geometry" : {
					"type" : "Point",
					"coordinates" : [ 151.3484214036249, -32.67913535105695 ]
				},
				"properties" : {
					"fid" : 383,
					"stationid" : 0,
					"stationnam" : "North Rothbury",
					"stationtyp" : 1,
					"brigadeid" : 2510,
					"lastupdate" : null,
					"dateverifi" : null
				}
			},
			{
				"type" : "Feature",
				"geometry" : {
					"type" : "Point",
					"coordinates" : [ 151.3942929280762, -32.682178480593734 ]
				},
				"properties" : {
					"fid" : 384,
					"stationid" : 0,
					"stationnam" : "Greta",
					"stationtyp" : 1,
					"brigadeid" : 2504,
					"lastupdate" : null,
					"dateverifi" : null
				}
			},
			{
				"type" : "Feature",
				"geometry" : {
					"type" : "Point",
					"coordinates" : [ 151.45841346940622, -32.702524294701426 ]
				},
				"properties" : {
					"fid" : 385,
					"stationid" : 0,
					"stationnam" : "Lochinvar",
					"stationtyp" : 1,
					"brigadeid" : 8103,
					"lastupdate" : null,
					"dateverifi" : null
				}
			},
			{
				"type" : "Feature",
				"geometry" : {
					"type" : "Point",
					"coordinates" : [ 151.57306985459022, -32.77270634666068 ]
				},
				"properties" : {
					"fid" : 386,
					"stationid" : 0,
					"stationnam" : "East Mailtland",
					"stationtyp" : 1,
					"brigadeid" : 8104,
					"lastupdate" : "20140602000000",
					"dateverifi" : null
				}
			},
			{
				"type" : "Feature",
				"geometry" : {
					"type" : "Point",
					"coordinates" : [ 151.51434451079058, -32.653679607069954 ]
				},
				"properties" : {
					"fid" : 387,
					"stationid" : 0,
					"stationnam" : "Maitland Vale/Luskintyre",
					"stationtyp" : 1,
					"brigadeid" : 8105,
					"lastupdate" : null,
					"dateverifi" : null
				}
			},
			{
				"type" : "Feature",
				"geometry" : {
					"type" : "Point",
					"coordinates" : [ 151.58500115028295, -32.68416394535105 ]
				},
				"properties" : {
					"fid" : 388,
					"stationid" : 0,
					"stationnam" : "Bolwarra-Largs",
					"stationtyp" : 1,
					"brigadeid" : 8102,
					"lastupdate" : null,
					"dateverifi" : null
				}
			},
			{
				"type" : "Feature",
				"geometry" : {
					"type" : "Point",
					"coordinates" : [ 144.1500467879291, -29.702813644121086 ]
				},
				"properties" : {
					"fid" : 389,
					"stationid" : 0,
					"stationnam" : "Wampralea",
					"stationtyp" : 1,
					"brigadeid" : 1719,
					"lastupdate" : null,
					"dateverifi" : null
				}
			},
			{
				"type" : "Feature",
				"geometry" : {
					"type" : "Point",
					"coordinates" : [ 141.2234964785797, -31.883850190586454 ]
				},
				"properties" : {
					"fid" : 390,
					"stationid" : 0,
					"stationnam" : "Silverton",
					"stationtyp" : 1,
					"brigadeid" : 14306,
					"lastupdate" : null,
					"dateverifi" : null
				}
			},
			{
				"type" : "Feature",
				"geometry" : {
					"type" : "Point",
					"coordinates" : [ 141.2234964785797, -31.883850190586454 ]
				},
				"properties" : {
					"fid" : 391,
					"stationid" : 0,
					"stationnam" : "Tibooburra",
					"stationtyp" : 1,
					"brigadeid" : 14307,
					"lastupdate" : null,
					"dateverifi" : null
				}
			},
			{
				"type" : "Feature",
				"geometry" : {
					"type" : "Point",
					"coordinates" : [ 150.11548828845378, -32.41456780930195 ]
				},
				"properties" : {
					"fid" : 392,
					"stationid" : 0,
					"stationnam" : "Bylong",
					"stationtyp" : 1,
					"brigadeid" : 15705,
					"lastupdate" : null,
					"dateverifi" : null
				}
			},
			{
				"type" : "Feature",
				"geometry" : {
					"type" : "Point",
					"coordinates" : [ 149.95071367849357, -32.360434416460926 ]
				},
				"properties" : {
					"fid" : 393,
					"stationid" : 0,
					"stationnam" : "Cooks Gap (Wollar)",
					"stationtyp" : 1,
					"brigadeid" : 15708,
					"lastupdate" : null,
					"dateverifi" : null
				}
			},
			{
				"type" : "Feature",
				"geometry" : {
					"type" : "Point",
					"coordinates" : [ 149.68120089340653, -32.34795141727001 ]
				},
				"properties" : {
					"fid" : 394,
					"stationid" : 0,
					"stationnam" : "Cooks Gap (Mays)",
					"stationtyp" : 1,
					"brigadeid" : 15708,
					"lastupdate" : null,
					"dateverifi" : null
				}
			},
			{
				"type" : "Feature",
				"geometry" : {
					"type" : "Point",
					"coordinates" : [ 149.4649155223336, -32.12343782774273 ]
				},
				"properties" : {
					"fid" : 395,
					"stationid" : 0,
					"stationnam" : "Birriwa",
					"stationtyp" : 1,
					"brigadeid" : 15703,
					"lastupdate" : null,
					"dateverifi" : null
				}
			},
			{
				"type" : "Feature",
				"geometry" : {
					"type" : "Point",
					"coordinates" : [ 149.6282309786768, -32.12805582216751 ]
				},
				"properties" : {
					"fid" : 396,
					"stationid" : 0,
					"stationnam" : "Cainbil-Bungaba",
					"stationtyp" : 1,
					"brigadeid" : 15706,
					"lastupdate" : null,
					"dateverifi" : null
				}
			},
			{
				"type" : "Feature",
				"geometry" : {
					"type" : "Point",
					"coordinates" : [ 149.52774883344196, -32.35563623836758 ]
				},
				"properties" : {
					"fid" : 397,
					"stationid" : 0,
					"stationnam" : "Gulgong D/C",
					"stationtyp" : 1,
					"brigadeid" : 15714,
					"lastupdate" : null,
					"dateverifi" : null
				}
			},
			{
				"type" : "Feature",
				"geometry" : {
					"type" : "Point",
					"coordinates" : [ 149.7169180278449, -32.37981859539736 ]
				},
				"properties" : {
					"fid" : 398,
					"stationid" : 0,
					"stationnam" : "Cooks Gap (Ulan)",
					"stationtyp" : 1,
					"brigadeid" : 15708,
					"lastupdate" : null,
					"dateverifi" : null
				}
			},
			{
				"type" : "Feature",
				"geometry" : {
					"type" : "Point",
					"coordinates" : [ 149.7540308066765, -32.45210340619173 ]
				},
				"properties" : {
					"fid" : 399,
					"stationid" : 0,
					"stationnam" : "Cooyal",
					"stationtyp" : 1,
					"brigadeid" : 15709,
					"lastupdate" : null,
					"dateverifi" : null
				}
			},
			{
				"type" : "Feature",
				"geometry" : {
					"type" : "Point",
					"coordinates" : [ 149.78078506737708, -32.50665596134728 ]
				},
				"properties" : {
					"fid" : 400,
					"stationid" : 0,
					"stationnam" : "Botobolar",
					"stationtyp" : 1,
					"brigadeid" : 15709,
					"lastupdate" : null,
					"dateverifi" : null
				}
			},
			{
				"type" : "Feature",
				"geometry" : {
					"type" : "Point",
					"coordinates" : [ 149.2778845218533, -32.375485387486194 ]
				},
				"properties" : {
					"fid" : 401,
					"stationid" : 0,
					"stationnam" : "Goolma",
					"stationtyp" : 1,
					"brigadeid" : 15712,
					"lastupdate" : null,
					"dateverifi" : null
				}
			},
			{
				"type" : "Feature",
				"geometry" : {
					"type" : "Point",
					"coordinates" : [ 149.47072475874074, -32.514912997680334 ]
				},
				"properties" : {
					"fid" : 402,
					"stationid" : 0,
					"stationnam" : "Piambong",
					"stationtyp" : 1,
					"brigadeid" : 15722,
					"lastupdate" : null,
					"dateverifi" : null
				}
			},
			{
				"type" : "Feature",
				"geometry" : {
					"type" : "Point",
					"coordinates" : [ 149.61177841514174, -32.53501469351658 ]
				},
				"properties" : {
					"fid" : 403,
					"stationid" : 0,
					"stationnam" : "Lawson - Cudgegong",
					"stationtyp" : 1,
					"brigadeid" : 15717,
					"lastupdate" : null,
					"dateverifi" : null
				}
			},
			{
				"type" : "Feature",
				"geometry" : {
					"type" : "Point",
					"coordinates" : [ 149.95004184625432, -32.905476299130186 ]
				},
				"properties" : {
					"fid" : 405,
					"stationid" : 0,
					"stationnam" : "Clandulla",
					"stationtyp" : 1,
					"brigadeid" : 15707,
					"lastupdate" : null,
					"dateverifi" : null
				}
			},
			{
				"type" : "Feature",
				"geometry" : {
					"type" : "Point",
					"coordinates" : [ 150.14585092957682, -32.839692106444716 ]
				},
				"properties" : {
					"fid" : 407,
					"stationid" : 0,
					"stationnam" : "Olinda",
					"stationtyp" : 1,
					"brigadeid" : 15721,
					"lastupdate" : null,
					"dateverifi" : null
				}
			},
			{
				"type" : "Feature",
				"geometry" : {
					"type" : "Point",
					"coordinates" : [ 149.84304140223898, -32.65268653519717 ]
				},
				"properties" : {
					"fid" : 408,
					"stationid" : 0,
					"stationnam" : "Lue/Havilah",
					"stationtyp" : 1,
					"brigadeid" : 15718,
					"lastupdate" : null,
					"dateverifi" : null
				}
			},
			{
				"type" : "Feature",
				"geometry" : {
					"type" : "Point",
					"coordinates" : [ 149.48792391425732, -32.63923075373814 ]
				},
				"properties" : {
					"fid" : 409,
					"stationid" : 0,
					"stationnam" : "Grattai",
					"stationtyp" : 1,
					"brigadeid" : 15713,
					"lastupdate" : null,
					"dateverifi" : null
				}
			},
			{
				"type" : "Feature",
				"geometry" : {
					"type" : "Point",
					"coordinates" : [ 149.65077271059226, -32.68684328383175 ]
				},
				"properties" : {
					"fid" : 411,
					"stationid" : 0,
					"stationnam" : "Mullamuddy",
					"stationtyp" : 1,
					"brigadeid" : 15720,
					"lastupdate" : null,
					"dateverifi" : null
				}
			},
			{
				"type" : "Feature",
				"geometry" : {
					"type" : "Point",
					"coordinates" : [ 149.4638726037378, -32.7879859343433 ]
				},
				"properties" : {
					"fid" : 412,
					"stationid" : 0,
					"stationnam" : "Hargraves",
					"stationtyp" : 1,
					"brigadeid" : 15715,
					"lastupdate" : null,
					"dateverifi" : null
				}
			},
			{
				"type" : "Feature",
				"geometry" : {
					"type" : "Point",
					"coordinates" : [ 149.55710367629368, -32.79607898919379 ]
				},
				"properties" : {
					"fid" : 413,
					"stationid" : 0,
					"stationnam" : "Windeyer",
					"stationtyp" : 1,
					"brigadeid" : 15726,
					"lastupdate" : null,
					"dateverifi" : null
				}
			},
			{
				"type" : "Feature",
				"geometry" : {
					"type" : "Point",
					"coordinates" : [ 148.55628920458318, -34.6016757121814 ]
				},
				"properties" : {
					"fid" : 415,
					"stationid" : 0,
					"stationnam" : "Galong",
					"stationtyp" : 1,
					"brigadeid" : 6013,
					"lastupdate" : "20180113000000",
					"dateverifi" : null
				}
			},
			{
				"type" : "Feature",
				"geometry" : {
					"type" : "Point",
					"coordinates" : [ 148.63418027300125, -34.66906009196582 ]
				},
				"properties" : {
					"fid" : 416,
					"stationid" : 0,
					"stationnam" : "Binalong",
					"stationtyp" : 1,
					"brigadeid" : 14002,
					"lastupdate" : null,
					"dateverifi" : null
				}
			},
			{
				"type" : "Feature",
				"geometry" : {
					"type" : "Point",
					"coordinates" : [ 148.81759204094004, -34.76717190217661 ]
				},
				"properties" : {
					"fid" : 417,
					"stationid" : 0,
					"stationnam" : "Bowning",
					"stationtyp" : 1,
					"brigadeid" : 14005,
					"lastupdate" : null,
					"dateverifi" : null
				}
			},
			{
				"type" : "Feature",
				"geometry" : {
					"type" : "Point",
					"coordinates" : [ 148.64199030041215, -34.81491849690564 ]
				},
				"properties" : {
					"fid" : 418,
					"stationid" : 0,
					"stationnam" : "Bookham",
					"stationtyp" : 1,
					"brigadeid" : 14004,
					"lastupdate" : null,
					"dateverifi" : null
				}
			},
			{
				"type" : "Feature",
				"geometry" : {
					"type" : "Point",
					"coordinates" : [ 148.1135005811869, -34.80487447709011 ]
				},
				"properties" : {
					"fid" : 419,
					"stationid" : 0,
					"stationnam" : "Muttama",
					"stationtyp" : 1,
					"brigadeid" : 5608,
					"lastupdate" : "20180113000000",
					"dateverifi" : null
				}
			},
			{
				"type" : "Feature",
				"geometry" : {
					"type" : "Point",
					"coordinates" : [ 148.45078880725774, -34.659396918849026 ]
				},
				"properties" : {
					"fid" : 420,
					"stationid" : 0,
					"stationnam" : "McMahons Reef",
					"stationtyp" : 1,
					"brigadeid" : 6010,
					"lastupdate" : "20180113000000",
					"dateverifi" : null
				}
			},
			{
				"type" : "Feature",
				"geometry" : {
					"type" : "Point",
					"coordinates" : [ 148.90749133395806, -34.822285044333775 ]
				},
				"properties" : {
					"fid" : 421,
					"stationid" : 0,
					"stationnam" : "Yass Valley FCC",
					"stationtyp" : 3,
					"brigadeid" : 14000,
					"lastupdate" : null,
					"dateverifi" : null
				}
			},
			{
				"type" : "Feature",
				"geometry" : {
					"type" : "Point",
					"coordinates" : [ 149.09442664297532, -34.70251568416731 ]
				},
				"properties" : {
					"fid" : 422,
					"stationid" : 0,
					"stationnam" : "Broadway",
					"stationtyp" : 1,
					"brigadeid" : 15908,
					"lastupdate" : null,
					"dateverifi" : null
				}
			},
			{
				"type" : "Feature",
				"geometry" : {
					"type" : "Point",
					"coordinates" : [ 149.03605237561678, -34.651150043955724 ]
				},
				"properties" : {
					"fid" : 423,
					"stationid" : 0,
					"stationnam" : "Blakney Creek",
					"stationtyp" : 1,
					"brigadeid" : 15907,
					"lastupdate" : null,
					"dateverifi" : null
				}
			},
			{
				"type" : "Feature",
				"geometry" : {
					"type" : "Point",
					"coordinates" : [ 148.9082394421966, -34.517216852593634 ]
				},
				"properties" : {
					"fid" : 424,
					"stationid" : 0,
					"stationnam" : "Rye Park",
					"stationtyp" : 1,
					"brigadeid" : 1611,
					"lastupdate" : "20180113000000",
					"dateverifi" : null
				}
			},
			{
				"type" : "Feature",
				"geometry" : {
					"type" : "Point",
					"coordinates" : [ 148.99341069974415, -34.391588695281484 ]
				},
				"properties" : {
					"fid" : 425,
					"stationid" : 0,
					"stationnam" : "Rugby",
					"stationtyp" : 1,
					"brigadeid" : 1610,
					"lastupdate" : "20180113000000",
					"dateverifi" : null
				}
			},
			{
				"type" : "Feature",
				"geometry" : {
					"type" : "Point",
					"coordinates" : [ 148.72155840029998, -34.4358631236032 ]
				},
				"properties" : {
					"fid" : 426,
					"stationid" : 0,
					"stationnam" : "Boorowa Support",
					"stationtyp" : 1,
					"brigadeid" : 1613,
					"lastupdate" : "20180113000000",
					"dateverifi" : null
				}
			},
			{
				"type" : "Feature",
				"geometry" : {
					"type" : "Point",
					"coordinates" : [ 148.5185615556713, -34.30492072123476 ]
				},
				"properties" : {
					"fid" : 427,
					"stationid" : 0,
					"stationnam" : "Murringo",
					"stationtyp" : 1,
					"brigadeid" : 14113,
					"lastupdate" : null,
					"dateverifi" : null
				}
			},
			{
				"type" : "Feature",
				"geometry" : {
					"type" : "Point",
					"coordinates" : [ 148.44881149575403, -34.16251024327535 ]
				},
				"properties" : {
					"fid" : 428,
					"stationid" : 0,
					"stationnam" : "Bendick Murrell",
					"stationtyp" : 1,
					"brigadeid" : 14101,
					"lastupdate" : null,
					"dateverifi" : null
				}
			},
			{
				"type" : "Feature",
				"geometry" : {
					"type" : "Point",
					"coordinates" : [ 148.55593545355842, -34.03796340471106 ]
				},
				"properties" : {
					"fid" : 429,
					"stationid" : 0,
					"stationnam" : "Koorawatha Town",
					"stationtyp" : 1,
					"brigadeid" : 14108,
					"lastupdate" : null,
					"dateverifi" : null
				}
			},
			{
				"type" : "Feature",
				"geometry" : {
					"type" : "Point",
					"coordinates" : [ 147.929159314451, -34.03826992693932 ]
				},
				"properties" : {
					"fid" : 439,
					"stationid" : 0,
					"stationnam" : "Bimbi",
					"stationtyp" : 1,
					"brigadeid" : 13001,
					"lastupdate" : null,
					"dateverifi" : null
				}
			},
			{
				"type" : "Feature",
				"geometry" : {
					"type" : "Point",
					"coordinates" : [ 147.87774388507228, -34.1195940781269 ]
				},
				"properties" : {
					"fid" : 440,
					"stationid" : 0,
					"stationnam" : "Bribbaree - Young",
					"stationtyp" : 1,
					"brigadeid" : 14103,
					"lastupdate" : null,
					"dateverifi" : null
				}
			},
			{
				"type" : "Feature",
				"geometry" : {
					"type" : "Point",
					"coordinates" : [ 147.9378073939962, -34.2547078257267 ]
				},
				"properties" : {
					"fid" : 441,
					"stationid" : 0,
					"stationnam" : "Tubbul",
					"stationtyp" : 1,
					"brigadeid" : 14115,
					"lastupdate" : null,
					"dateverifi" : null
				}
			},
			{
				"type" : "Feature",
				"geometry" : {
					"type" : "Point",
					"coordinates" : [ 147.52378597664156, -34.44643272161161 ]
				},
				"properties" : {
					"fid" : 442,
					"stationid" : 0,
					"stationnam" : "Thanowring",
					"stationtyp" : 1,
					"brigadeid" : 11610,
					"lastupdate" : null,
					"dateverifi" : null
				}
			},
			{
				"type" : "Feature",
				"geometry" : {
					"type" : "Point",
					"coordinates" : [ 147.72669950807585, -34.468410637059826 ]
				},
				"properties" : {
					"fid" : 443,
					"stationid" : 0,
					"stationnam" : "Springdale",
					"stationtyp" : 1,
					"brigadeid" : 11608,
					"lastupdate" : null,
					"dateverifi" : null
				}
			},
			{
				"type" : "Feature",
				"geometry" : {
					"type" : "Point",
					"coordinates" : [ 147.87915141940255, -34.501481936360456 ]
				},
				"properties" : {
					"fid" : 444,
					"stationid" : 3413,
					"stationnam" : "Stockinbingal",
					"stationtyp" : 1,
					"brigadeid" : 3413,
					"lastupdate" : null,
					"dateverifi" : null
				}
			},
			{
				"type" : "Feature",
				"geometry" : {
					"type" : "Point",
					"coordinates" : [ 148.02684938579057, -34.654515590338576 ]
				},
				"properties" : {
					"fid" : 445,
					"stationid" : 0,
					"stationnam" : "Cootamundra HQ",
					"stationtyp" : 1,
					"brigadeid" : 3402,
					"lastupdate" : null,
					"dateverifi" : null
				}
			},
			{
				"type" : "Feature",
				"geometry" : {
					"type" : "Point",
					"coordinates" : [ 148.15783719852806, -34.52678738834515 ]
				},
				"properties" : {
					"fid" : 446,
					"stationid" : 0,
					"stationnam" : "Wallendbeen Rural",
					"stationtyp" : 1,
					"brigadeid" : 3409,
					"lastupdate" : null,
					"dateverifi" : null
				}
			},
			{
				"type" : "Feature",
				"geometry" : {
					"type" : "Point",
					"coordinates" : [ 148.35473755249615, -34.55035753009356 ]
				},
				"properties" : {
					"fid" : 447,
					"stationid" : 0,
					"stationnam" : "Demondrille",
					"stationtyp" : 1,
					"brigadeid" : 6006,
					"lastupdate" : "20180113000000",
					"dateverifi" : null
				}
			},
			{
				"type" : "Feature",
				"geometry" : {
					"type" : "Point",
					"coordinates" : [ 148.41822526158666, -34.55918345417058 ]
				},
				"properties" : {
					"fid" : 448,
					"stationid" : 0,
					"stationnam" : "Cunningar",
					"stationtyp" : 1,
					"brigadeid" : 6005,
					"lastupdate" : "20180113000000",
					"dateverifi" : null
				}
			},
			{
				"type" : "Feature",
				"geometry" : {
					"type" : "Point",
					"coordinates" : [ 148.32051116665707, -34.443062400728024 ]
				},
				"properties" : {
					"fid" : 449,
					"stationid" : 0,
					"stationnam" : "Kingsvale",
					"stationtyp" : 1,
					"brigadeid" : 6009,
					"lastupdate" : "20180113000000",
					"dateverifi" : null
				}
			},
			{
				"type" : "Feature",
				"geometry" : {
					"type" : "Point",
					"coordinates" : [ 148.245863022061, -34.42843361913523 ]
				},
				"properties" : {
					"fid" : 450,
					"stationid" : 0,
					"stationnam" : "Wombat",
					"stationtyp" : 1,
					"brigadeid" : 6012,
					"lastupdate" : "20180113000000",
					"dateverifi" : null
				}
			},
			{
				"type" : "Feature",
				"geometry" : {
					"type" : "Point",
					"coordinates" : [ 148.2776522667388, -34.34907644084502 ]
				},
				"properties" : {
					"fid" : 451,
					"stationid" : 0,
					"stationnam" : "Boara",
					"stationtyp" : 1,
					"brigadeid" : 14102,
					"lastupdate" : null,
					"dateverifi" : null
				}
			},
			{
				"type" : "Feature",
				"geometry" : {
					"type" : "Point",
					"coordinates" : [ 148.32647041897476, -34.308122839218115 ]
				},
				"properties" : {
					"fid" : 452,
					"stationid" : 0,
					"stationnam" : "Wambanumba",
					"stationtyp" : 1,
					"brigadeid" : 14116,
					"lastupdate" : null,
					"dateverifi" : null
				}
			},
			{
				"type" : "Feature",
				"geometry" : {
					"type" : "Point",
					"coordinates" : [ 148.28300396765908, -34.30336807769511 ]
				},
				"properties" : {
					"fid" : 453,
					"stationid" : 0,
					"stationnam" : "Young",
					"stationtyp" : 1,
					"brigadeid" : 14118,
					"lastupdate" : null,
					"dateverifi" : null
				}
			},
			{
				"type" : "Feature",
				"geometry" : {
					"type" : "Point",
					"coordinates" : [ 148.34244123637404, -34.19139141050706 ]
				},
				"properties" : {
					"fid" : 454,
					"stationid" : 0,
					"stationnam" : "Monteagle",
					"stationtyp" : 1,
					"brigadeid" : 14112,
					"lastupdate" : null,
					"dateverifi" : null
				}
			},
			{
				"type" : "Feature",
				"geometry" : {
					"type" : "Point",
					"coordinates" : [ 148.22741258582226, -34.03960316917465 ]
				},
				"properties" : {
					"fid" : 455,
					"stationid" : 0,
					"stationnam" : "Emu Creek 1",
					"stationtyp" : 1,
					"brigadeid" : 13004,
					"lastupdate" : null,
					"dateverifi" : null
				}
			},
			{
				"type" : "Feature",
				"geometry" : {
					"type" : "Point",
					"coordinates" : [ 149.4289618365196, -34.11408829815921 ]
				},
				"properties" : {
					"fid" : 457,
					"stationid" : 0,
					"stationnam" : "Peelwood",
					"stationtyp" : 1,
					"brigadeid" : 15924,
					"lastupdate" : null,
					"dateverifi" : null
				}
			},
			{
				"type" : "Feature",
				"geometry" : {
					"type" : "Point",
					"coordinates" : [ 149.47480418336644, -34.200170425046856 ]
				},
				"properties" : {
					"fid" : 458,
					"stationid" : 0,
					"stationnam" : "Peelwood - Limerick",
					"stationtyp" : 1,
					"brigadeid" : 15924,
					"lastupdate" : null,
					"dateverifi" : null
				}
			},
			{
				"type" : "Feature",
				"geometry" : {
					"type" : "Point",
					"coordinates" : [ 149.6590191367238, -34.28886807542202 ]
				},
				"properties" : {
					"fid" : 459,
					"stationid" : 0,
					"stationnam" : "Golspie",
					"stationtyp" : 1,
					"brigadeid" : 15916,
					"lastupdate" : null,
					"dateverifi" : null
				}
			},
			{
				"type" : "Feature",
				"geometry" : {
					"type" : "Point",
					"coordinates" : [ 149.97281269934675, -34.58266224728207 ]
				},
				"properties" : {
					"fid" : 460,
					"stationid" : 0,
					"stationnam" : "Big Hill",
					"stationtyp" : 1,
					"brigadeid" : 15904,
					"lastupdate" : null,
					"dateverifi" : null
				}
			},
			{
				"type" : "Feature",
				"geometry" : {
					"type" : "Point",
					"coordinates" : [ 149.9976867960089, -34.71114248575282 ]
				},
				"properties" : {
					"fid" : 461,
					"stationid" : 0,
					"stationnam" : "Marulan",
					"stationtyp" : 1,
					"brigadeid" : 8607,
					"lastupdate" : null,
					"dateverifi" : null
				}
			},
			{
				"type" : "Feature",
				"geometry" : {
					"type" : "Point",
					"coordinates" : [ 149.62766212690573, -34.78865430556657 ]
				},
				"properties" : {
					"fid" : 462,
					"stationid" : 0,
					"stationnam" : "Yarra",
					"stationtyp" : 1,
					"brigadeid" : 8610,
					"lastupdate" : null,
					"dateverifi" : null
				}
			},
			{
				"type" : "Feature",
				"geometry" : {
					"type" : "Point",
					"coordinates" : [ 149.6821846402091, -34.82601532336286 ]
				},
				"properties" : {
					"fid" : 463,
					"stationid" : 0,
					"stationnam" : "Gundary",
					"stationtyp" : 1,
					"brigadeid" : 8606,
					"lastupdate" : null,
					"dateverifi" : null
				}
			},
			{
				"type" : "Feature",
				"geometry" : {
					"type" : "Point",
					"coordinates" : [ 149.94281434660493, -34.85730940132182 ]
				},
				"properties" : {
					"fid" : 464,
					"stationid" : 0,
					"stationnam" : "Bungonia",
					"stationtyp" : 1,
					"brigadeid" : 8604,
					"lastupdate" : null,
					"dateverifi" : null
				}
			},
			{
				"type" : "Feature",
				"geometry" : {
					"type" : "Point",
					"coordinates" : [ 152.9921726625384, -30.74887879598939 ]
				},
				"properties" : {
					"fid" : 468,
					"stationid" : 0,
					"stationnam" : "Scotts Head",
					"stationtyp" : 1,
					"brigadeid" : 9109,
					"lastupdate" : null,
					"dateverifi" : null
				}
			},
			{
				"type" : "Feature",
				"geometry" : {
					"type" : "Point",
					"coordinates" : [ 147.35666147144988, -32.243031615064474 ]
				},
				"properties" : {
					"fid" : 503,
					"stationid" : 0,
					"stationnam" : "Tottenham",
					"stationtyp" : 1,
					"brigadeid" : 7429,
					"lastupdate" : null,
					"dateverifi" : null
				}
			},
			{
				"type" : "Feature",
				"geometry" : {
					"type" : "Point",
					"coordinates" : [ 149.14749748681965, -34.24898765547707 ]
				},
				"properties" : {
					"fid" : 514,
					"stationid" : 0,
					"stationnam" : "Binda - Mulgowrie",
					"stationtyp" : 1,
					"brigadeid" : 15906,
					"lastupdate" : null,
					"dateverifi" : null
				}
			},
			{
				"type" : "Feature",
				"geometry" : {
					"type" : "Point",
					"coordinates" : [ 149.28060400337205, -34.2693525109305 ]
				},
				"properties" : {
					"fid" : 515,
					"stationid" : 0,
					"stationnam" : "Binda - Sylvia Vale",
					"stationtyp" : 1,
					"brigadeid" : 15906,
					"lastupdate" : null,
					"dateverifi" : null
				}
			},
			{
				"type" : "Feature",
				"geometry" : {
					"type" : "Point",
					"coordinates" : [ 149.36499168521811, -34.32351954920805 ]
				},
				"properties" : {
					"fid" : 516,
					"stationid" : 0,
					"stationnam" : "Binda",
					"stationtyp" : 1,
					"brigadeid" : 15906,
					"lastupdate" : null,
					"dateverifi" : null
				}
			},
			{
				"type" : "Feature",
				"geometry" : {
					"type" : "Point",
					"coordinates" : [ 149.46902225217525, -34.44894518638999 ]
				},
				"properties" : {
					"fid" : 517,
					"stationid" : 0,
					"stationnam" : "Crookwell",
					"stationtyp" : 1,
					"brigadeid" : 15912,
					"lastupdate" : null,
					"dateverifi" : null
				}
			},
			{
				"type" : "Feature",
				"geometry" : {
					"type" : "Point",
					"coordinates" : [ 149.53050528698955, -34.40210731791772 ]
				},
				"properties" : {
					"fid" : 518,
					"stationid" : 0,
					"stationnam" : "Laggan",
					"stationtyp" : 1,
					"brigadeid" : 15920,
					"lastupdate" : null,
					"dateverifi" : null
				}
			},
			{
				"type" : "Feature",
				"geometry" : {
					"type" : "Point",
					"coordinates" : [ 149.3938524693162, -34.54148187800394 ]
				},
				"properties" : {
					"fid" : 519,
					"stationid" : 0,
					"stationnam" : "Grabben Gullen",
					"stationtyp" : 1,
					"brigadeid" : 15917,
					"lastupdate" : null,
					"dateverifi" : null
				}
			},
			{
				"type" : "Feature",
				"geometry" : {
					"type" : "Point",
					"coordinates" : [ 149.2137517911125, -34.49608604005694 ]
				},
				"properties" : {
					"fid" : 520,
					"stationid" : 0,
					"stationnam" : "Winduella",
					"stationtyp" : 1,
					"brigadeid" : 15928,
					"lastupdate" : null,
					"dateverifi" : null
				}
			},
			{
				"type" : "Feature",
				"geometry" : {
					"type" : "Point",
					"coordinates" : [ 149.1153713399154, -34.53232682993702 ]
				},
				"properties" : {
					"fid" : 521,
					"stationid" : 0,
					"stationnam" : "Bevendale",
					"stationtyp" : 1,
					"brigadeid" : 15902,
					"lastupdate" : null,
					"dateverifi" : null
				}
			},
			{
				"type" : "Feature",
				"geometry" : {
					"type" : "Point",
					"coordinates" : [ 149.24370277296467, -34.5989152449596 ]
				},
				"properties" : {
					"fid" : 522,
					"stationid" : 0,
					"stationnam" : "Biala",
					"stationtyp" : 1,
					"brigadeid" : 15903,
					"lastupdate" : null,
					"dateverifi" : null
				}
			},
			{
				"type" : "Feature",
				"geometry" : {
					"type" : "Point",
					"coordinates" : [ 149.448941333376, -34.59264547562525 ]
				},
				"properties" : {
					"fid" : 523,
					"stationid" : 0,
					"stationnam" : "Bannister",
					"stationtyp" : 1,
					"brigadeid" : 15901,
					"lastupdate" : null,
					"dateverifi" : null
				}
			},
			{
				"type" : "Feature",
				"geometry" : {
					"type" : "Point",
					"coordinates" : [ 149.74987317880428, -34.62114511357286 ]
				},
				"properties" : {
					"fid" : 524,
					"stationid" : 0,
					"stationnam" : "Middle Arm",
					"stationtyp" : 1,
					"brigadeid" : 8608,
					"lastupdate" : null,
					"dateverifi" : null
				}
			},
			{
				"type" : "Feature",
				"geometry" : {
					"type" : "Point",
					"coordinates" : [ 149.75320484952422, -34.692211423034685 ]
				},
				"properties" : {
					"fid" : 525,
					"stationid" : 0,
					"stationnam" : "Tarlo (Campbells Lane)",
					"stationtyp" : 1,
					"brigadeid" : 8618,
					"lastupdate" : null,
					"dateverifi" : null
				}
			},
			{
				"type" : "Feature",
				"geometry" : {
					"type" : "Point",
					"coordinates" : [ 149.53467921507382, -34.73694287872632 ]
				},
				"properties" : {
					"fid" : 526,
					"stationid" : 0,
					"stationnam" : "Parkesbourne",
					"stationtyp" : 1,
					"brigadeid" : 8610,
					"lastupdate" : null,
					"dateverifi" : null
				}
			},
			{
				"type" : "Feature",
				"geometry" : {
					"type" : "Point",
					"coordinates" : [ 149.24663104019052, -34.92560496790822 ]
				},
				"properties" : {
					"fid" : 527,
					"stationid" : 0,
					"stationnam" : "Bellmount Forest",
					"stationtyp" : 1,
					"brigadeid" : 14017,
					"lastupdate" : null,
					"dateverifi" : null
				}
			},
			{
				"type" : "Feature",
				"geometry" : {
					"type" : "Point",
					"coordinates" : [ 149.4303089202206, -34.91606410438822 ]
				},
				"properties" : {
					"fid" : 528,
					"stationid" : 0,
					"stationnam" : "Collector",
					"stationtyp" : 1,
					"brigadeid" : 15910,
					"lastupdate" : null,
					"dateverifi" : null
				}
			},
			{
				"type" : "Feature",
				"geometry" : {
					"type" : "Point",
					"coordinates" : [ 148.96320375644825, -34.93872475095958 ]
				},
				"properties" : {
					"fid" : 538,
					"stationid" : 0,
					"stationnam" : "Jeir North",
					"stationtyp" : 1,
					"brigadeid" : 14010,
					"lastupdate" : null,
					"dateverifi" : null
				}
			},
			{
				"type" : "Feature",
				"geometry" : {
					"type" : "Point",
					"coordinates" : [ 145.4253222702069, -29.752937339472552 ]
				},
				"properties" : {
					"fid" : 540,
					"stationid" : 0,
					"stationnam" : "Fords Bridge",
					"stationtyp" : 1,
					"brigadeid" : 1707,
					"lastupdate" : null,
					"dateverifi" : null
				}
			},
			{
				"type" : "Feature",
				"geometry" : {
					"type" : "Point",
					"coordinates" : [ 145.11680968761712, -30.53347783710562 ]
				},
				"properties" : {
					"fid" : 541,
					"stationid" : 0,
					"stationnam" : "Louth",
					"stationtyp" : 1,
					"brigadeid" : 1709,
					"lastupdate" : null,
					"dateverifi" : null
				}
			},
			{
				"type" : "Feature",
				"geometry" : {
					"type" : "Point",
					"coordinates" : [ 145.84724156164881, -29.318228609356034 ]
				},
				"properties" : {
					"fid" : 542,
					"stationid" : 0,
					"stationnam" : "Enngonia",
					"stationtyp" : 1,
					"brigadeid" : 1706,
					"lastupdate" : null,
					"dateverifi" : null
				}
			},
			{
				"type" : "Feature",
				"geometry" : {
					"type" : "Point",
					"coordinates" : [ 152.89804893371144, -30.763096686332503 ]
				},
				"properties" : {
					"fid" : 560,
					"stationid" : 0,
					"stationnam" : "Warrell Creek",
					"stationtyp" : 1,
					"brigadeid" : 9116,
					"lastupdate" : null,
					"dateverifi" : null
				}
			},
			{
				"type" : "Feature",
				"geometry" : {
					"type" : "Point",
					"coordinates" : [ 152.9663438914576, -30.712515374555217 ]
				},
				"properties" : {
					"fid" : 561,
					"stationid" : 0,
					"stationnam" : "Gumma",
					"stationtyp" : 1,
					"brigadeid" : 9104,
					"lastupdate" : null,
					"dateverifi" : null
				}
			},
			{
				"type" : "Feature",
				"geometry" : {
					"type" : "Point",
					"coordinates" : [ 152.9361840231743, -30.710974643435353 ]
				},
				"properties" : {
					"fid" : 562,
					"stationid" : 0,
					"stationnam" : "North Macksville",
					"stationtyp" : 1,
					"brigadeid" : 9105,
					"lastupdate" : null,
					"dateverifi" : null
				}
			},
			{
				"type" : "Feature",
				"geometry" : {
					"type" : "Point",
					"coordinates" : [ 152.9330723428144, -30.65764117597069 ]
				},
				"properties" : {
					"fid" : 563,
					"stationid" : 0,
					"stationnam" : "Newee Creek",
					"stationtyp" : 1,
					"brigadeid" : 9107,
					"lastupdate" : null,
					"dateverifi" : null
				}
			},
			{
				"type" : "Feature",
				"geometry" : {
					"type" : "Point",
					"coordinates" : [ 153.0061585664648, -30.592645632062478 ]
				},
				"properties" : {
					"fid" : 564,
					"stationid" : 0,
					"stationnam" : "Valla Beach",
					"stationtyp" : 1,
					"brigadeid" : 9115,
					"lastupdate" : null,
					"dateverifi" : null
				}
			},
			{
				"type" : "Feature",
				"geometry" : {
					"type" : "Point",
					"coordinates" : [ 152.95030044480984, -30.589944266486935 ]
				},
				"properties" : {
					"fid" : 565,
					"stationid" : 0,
					"stationnam" : "Valla",
					"stationtyp" : 1,
					"brigadeid" : 9114,
					"lastupdate" : null,
					"dateverifi" : null
				}
			},
			{
				"type" : "Feature",
				"geometry" : {
					"type" : "Point",
					"coordinates" : [ 152.716482878582, -30.768060464688155 ]
				},
				"properties" : {
					"fid" : 566,
					"stationid" : 0,
					"stationnam" : "Grays Crossing Taylors Arm",
					"stationtyp" : 1,
					"brigadeid" : 9118,
					"lastupdate" : null,
					"dateverifi" : null
				}
			},
			{
				"type" : "Feature",
				"geometry" : {
					"type" : "Point",
					"coordinates" : [ 152.82736466974382, -30.740147257559784 ]
				},
				"properties" : {
					"fid" : 567,
					"stationid" : 0,
					"stationnam" : "Utungun",
					"stationtyp" : 1,
					"brigadeid" : 9113,
					"lastupdate" : null,
					"dateverifi" : null
				}
			},
			{
				"type" : "Feature",
				"geometry" : {
					"type" : "Point",
					"coordinates" : [ 152.84913430490434, -30.71338044322325 ]
				},
				"properties" : {
					"fid" : 568,
					"stationid" : 0,
					"stationnam" : "Talarm",
					"stationtyp" : 1,
					"brigadeid" : 9111,
					"lastupdate" : null,
					"dateverifi" : null
				}
			},
			{
				"type" : "Feature",
				"geometry" : {
					"type" : "Point",
					"coordinates" : [ 152.76283805932908, -30.668714487854345 ]
				},
				"properties" : {
					"fid" : 569,
					"stationid" : 0,
					"stationnam" : "South Arm",
					"stationtyp" : 1,
					"brigadeid" : 9110,
					"lastupdate" : null,
					"dateverifi" : null
				}
			},
			{
				"type" : "Feature",
				"geometry" : {
					"type" : "Point",
					"coordinates" : [ 152.66582527461702, -30.578701925226063 ]
				},
				"properties" : {
					"fid" : 570,
					"stationid" : 0,
					"stationnam" : "Girralong",
					"stationtyp" : 1,
					"brigadeid" : 9108,
					"lastupdate" : null,
					"dateverifi" : null
				}
			},
			{
				"type" : "Feature",
				"geometry" : {
					"type" : "Point",
					"coordinates" : [ 152.8107233978666, -30.567018497078607 ]
				},
				"properties" : {
					"fid" : 571,
					"stationid" : 0,
					"stationnam" : "Missabotti",
					"stationtyp" : 1,
					"brigadeid" : 9106,
					"lastupdate" : null,
					"dateverifi" : null
				}
			},
			{
				"type" : "Feature",
				"geometry" : {
					"type" : "Point",
					"coordinates" : [ 153.04334928054504, -30.463795802808317 ]
				},
				"properties" : {
					"fid" : 572,
					"stationid" : 716,
					"stationnam" : "Mylestom",
					"stationtyp" : 1,
					"brigadeid" : 716,
					"lastupdate" : "20170208000000",
					"dateverifi" : "20170208000000"
				}
			},
			{
				"type" : "Feature",
				"geometry" : {
					"type" : "Point",
					"coordinates" : [ 153.03164700080865, -30.43650090296901 ]
				},
				"properties" : {
					"fid" : 573,
					"stationid" : 716,
					"stationnam" : "Repton",
					"stationtyp" : 1,
					"brigadeid" : 716,
					"lastupdate" : "20170208000000",
					"dateverifi" : "20170208000000"
				}
			},
			{
				"type" : "Feature",
				"geometry" : {
					"type" : "Point",
					"coordinates" : [ 147.6181191917474, -34.725908549755346 ]
				},
				"properties" : {
					"fid" : 598,
					"stationid" : 0,
					"stationnam" : "Junee Reefs",
					"stationtyp" : 1,
					"brigadeid" : 6908,
					"lastupdate" : null,
					"dateverifi" : null
				}
			},
			{
				"type" : "Feature",
				"geometry" : {
					"type" : "Point",
					"coordinates" : [ 146.78184530032053, -34.73698256940547 ]
				},
				"properties" : {
					"fid" : 615,
					"stationid" : 0,
					"stationnam" : "Grong Grong",
					"stationtyp" : 1,
					"brigadeid" : 9312,
					"lastupdate" : null,
					"dateverifi" : null
				}
			},
			{
				"type" : "Feature",
				"geometry" : {
					"type" : "Point",
					"coordinates" : [ 146.922735715381, -34.76891777674905 ]
				},
				"properties" : {
					"fid" : 616,
					"stationid" : 0,
					"stationnam" : "Matong",
					"stationtyp" : 1,
					"brigadeid" : 3013,
					"lastupdate" : null,
					"dateverifi" : null
				}
			},
			{
				"type" : "Feature",
				"geometry" : {
					"type" : "Point",
					"coordinates" : [ 147.03847409560316, -34.79509681038421 ]
				},
				"properties" : {
					"fid" : 617,
					"stationid" : 0,
					"stationnam" : "Ganmain",
					"stationtyp" : 1,
					"brigadeid" : 3009,
					"lastupdate" : null,
					"dateverifi" : null
				}
			},
			{
				"type" : "Feature",
				"geometry" : {
					"type" : "Point",
					"coordinates" : [ 147.41993858090095, -34.72327738795664 ]
				},
				"properties" : {
					"fid" : 618,
					"stationid" : 0,
					"stationnam" : "Murrulebale",
					"stationtyp" : 1,
					"brigadeid" : 3015,
					"lastupdate" : null,
					"dateverifi" : null
				}
			},
			{
				"type" : "Feature",
				"geometry" : {
					"type" : "Point",
					"coordinates" : [ 147.22154738840123, -34.34614133157721 ]
				},
				"properties" : {
					"fid" : 619,
					"stationid" : 0,
					"stationnam" : "Ariah Park",
					"stationtyp" : 1,
					"brigadeid" : 11601,
					"lastupdate" : null,
					"dateverifi" : null
				}
			},
			{
				"type" : "Feature",
				"geometry" : {
					"type" : "Point",
					"coordinates" : [ 146.51118087579687, -34.70599822875097 ]
				},
				"properties" : {
					"fid" : 620,
					"stationid" : 0,
					"stationnam" : "Paynters Siding",
					"stationtyp" : 1,
					"brigadeid" : 9318,
					"lastupdate" : null,
					"dateverifi" : null
				}
			},
			{
				"type" : "Feature",
				"geometry" : {
					"type" : "Point",
					"coordinates" : [ 146.3017560324151, -34.93255826426567 ]
				},
				"properties" : {
					"fid" : 621,
					"stationid" : 0,
					"stationnam" : "Morundah - Urana",
					"stationtyp" : 1,
					"brigadeid" : 12303,
					"lastupdate" : "20180113000000",
					"dateverifi" : null
				}
			},
			{
				"type" : "Feature",
				"geometry" : {
					"type" : "Point",
					"coordinates" : [ 146.06449457446513, -34.71227060701863 ]
				},
				"properties" : {
					"fid" : 622,
					"stationid" : 0,
					"stationnam" : "Tubbo",
					"stationtyp" : 1,
					"brigadeid" : 8806,
					"lastupdate" : null,
					"dateverifi" : null
				}
			},
			{
				"type" : "Feature",
				"geometry" : {
					"type" : "Point",
					"coordinates" : [ 146.39694456663844, -34.694439141768825 ]
				},
				"properties" : {
					"fid" : 623,
					"stationid" : 0,
					"stationnam" : "Euroley - Leeton",
					"stationtyp" : 1,
					"brigadeid" : 7602,
					"lastupdate" : null,
					"dateverifi" : null
				}
			},
			{
				"type" : "Feature",
				"geometry" : {
					"type" : "Point",
					"coordinates" : [ 146.4089086030497, -34.606740951150854 ]
				},
				"properties" : {
					"fid" : 624,
					"stationid" : 0,
					"stationnam" : "Yanco / Wamoon",
					"stationtyp" : 1,
					"brigadeid" : 7608,
					"lastupdate" : null,
					"dateverifi" : null
				}
			},
			{
				"type" : "Feature",
				"geometry" : {
					"type" : "Point",
					"coordinates" : [ 146.18098658476316, -34.51662868068701 ]
				},
				"properties" : {
					"fid" : 625,
					"stationid" : 0,
					"stationnam" : "Whitton",
					"stationtyp" : 1,
					"brigadeid" : 7607,
					"lastupdate" : null,
					"dateverifi" : null
				}
			},
			{
				"type" : "Feature",
				"geometry" : {
					"type" : "Point",
					"coordinates" : [ 146.30069123691118, -34.42568064416549 ]
				},
				"properties" : {
					"fid" : 626,
					"stationid" : 0,
					"stationnam" : "Murrami",
					"stationtyp" : 1,
					"brigadeid" : 7601,
					"lastupdate" : null,
					"dateverifi" : null
				}
			},
			{
				"type" : "Feature",
				"geometry" : {
					"type" : "Point",
					"coordinates" : [ 146.05402041880743, -34.29800105052862 ]
				},
				"properties" : {
					"fid" : 627,
					"stationid" : 0,
					"stationnam" : "Hanwood",
					"stationtyp" : 1,
					"brigadeid" : 5503,
					"lastupdate" : null,
					"dateverifi" : null
				}
			},
			{
				"type" : "Feature",
				"geometry" : {
					"type" : "Point",
					"coordinates" : [ 146.10343386647983, -34.25079390423642 ]
				},
				"properties" : {
					"fid" : 628,
					"stationid" : 0,
					"stationnam" : "Beelbangera",
					"stationtyp" : 1,
					"brigadeid" : 5512,
					"lastupdate" : null,
					"dateverifi" : null
				}
			},
			{
				"type" : "Feature",
				"geometry" : {
					"type" : "Point",
					"coordinates" : [ 146.34520732925492, -34.22956524815908 ]
				},
				"properties" : {
					"fid" : 629,
					"stationid" : 0,
					"stationnam" : "Binya - Narrandera",
					"stationtyp" : 1,
					"brigadeid" : 9302,
					"lastupdate" : null,
					"dateverifi" : null
				}
			},
			{
				"type" : "Feature",
				"geometry" : {
					"type" : "Point",
					"coordinates" : [ 146.49312055916656, -34.40095537540953 ]
				},
				"properties" : {
					"fid" : 631,
					"stationid" : 0,
					"stationnam" : "Brobenah",
					"stationtyp" : 1,
					"brigadeid" : 9304,
					"lastupdate" : null,
					"dateverifi" : null
				}
			},
			{
				"type" : "Feature",
				"geometry" : {
					"type" : "Point",
					"coordinates" : [ 146.5792216284755, -34.44871553461303 ]
				},
				"properties" : {
					"fid" : 632,
					"stationid" : 0,
					"stationnam" : "Colinroobie",
					"stationtyp" : 1,
					"brigadeid" : 9306,
					"lastupdate" : null,
					"dateverifi" : null
				}
			},
			{
				"type" : "Feature",
				"geometry" : {
					"type" : "Point",
					"coordinates" : [ 146.5732800388428, -34.2852184961574 ]
				},
				"properties" : {
					"fid" : 633,
					"stationid" : 0,
					"stationnam" : "Barellan",
					"stationtyp" : 1,
					"brigadeid" : 9301,
					"lastupdate" : null,
					"dateverifi" : null
				}
			},
			{
				"type" : "Feature",
				"geometry" : {
					"type" : "Point",
					"coordinates" : [ 149.79303498567606, -34.10901522969196 ]
				},
				"properties" : {
					"fid" : 645,
					"stationid" : 0,
					"stationnam" : "Jerrong / Paling Yards",
					"stationtyp" : 1,
					"brigadeid" : 9710,
					"lastupdate" : null,
					"dateverifi" : null
				}
			},
			{
				"type" : "Feature",
				"geometry" : {
					"type" : "Point",
					"coordinates" : [ 147.56969274012803, -32.63206879488101 ]
				},
				"properties" : {
					"fid" : 676,
					"stationid" : 0,
					"stationnam" : "Tullamore Village",
					"stationtyp" : 1,
					"brigadeid" : 9927,
					"lastupdate" : null,
					"dateverifi" : null
				}
			},
			{
				"type" : "Feature",
				"geometry" : {
					"type" : "Point",
					"coordinates" : [ 147.45832949331162, -32.807657753342234 ]
				},
				"properties" : {
					"fid" : 678,
					"stationid" : 0,
					"stationnam" : "Fifield",
					"stationtyp" : 1,
					"brigadeid" : 7418,
					"lastupdate" : null,
					"dateverifi" : null
				}
			},
			{
				"type" : "Feature",
				"geometry" : {
					"type" : "Point",
					"coordinates" : [ 147.5059413866858, -32.3563126805316 ]
				},
				"properties" : {
					"fid" : 679,
					"stationid" : 0,
					"stationnam" : "Albert",
					"stationtyp" : 1,
					"brigadeid" : 7401,
					"lastupdate" : null,
					"dateverifi" : null
				}
			},
			{
				"type" : "Feature",
				"geometry" : {
					"type" : "Point",
					"coordinates" : [ 148.19231302032978, -32.728022518165346 ]
				},
				"properties" : {
					"fid" : 680,
					"stationid" : 0,
					"stationnam" : "Peak Hill",
					"stationtyp" : 1,
					"brigadeid" : 9908,
					"lastupdate" : null,
					"dateverifi" : null
				}
			},
			{
				"type" : "Feature",
				"geometry" : {
					"type" : "Point",
					"coordinates" : [ 149.74499471733236, -32.05122272519877 ]
				},
				"properties" : {
					"fid" : 681,
					"stationid" : 0,
					"stationnam" : "Uarbry",
					"stationtyp" : 1,
					"brigadeid" : 15315,
					"lastupdate" : "20190507000000",
					"dateverifi" : null
				}
			},
			{
				"type" : "Feature",
				"geometry" : {
					"type" : "Point",
					"coordinates" : [ 149.2608949839164, -32.17994985005388 ]
				},
				"properties" : {
					"fid" : 682,
					"stationid" : 0,
					"stationnam" : "Dapper",
					"stationtyp" : 1,
					"brigadeid" : 15305,
					"lastupdate" : "20190506000000",
					"dateverifi" : null
				}
			},
			{
				"type" : "Feature",
				"geometry" : {
					"type" : "Point",
					"coordinates" : [ 149.25800806661903, -32.06874314912695 ]
				},
				"properties" : {
					"fid" : 683,
					"stationid" : 0,
					"stationnam" : "Cobbora",
					"stationtyp" : 1,
					"brigadeid" : 15303,
					"lastupdate" : "20190506000000",
					"dateverifi" : null
				}
			},
			{
				"type" : "Feature",
				"geometry" : {
					"type" : "Point",
					"coordinates" : [ 150.35601373684466, -30.783788939077457 ]
				},
				"properties" : {
					"fid" : 701,
					"stationid" : 0,
					"stationnam" : "Kelvin",
					"stationtyp" : 1,
					"brigadeid" : 5713,
					"lastupdate" : null,
					"dateverifi" : null
				}
			},
			{
				"type" : "Feature",
				"geometry" : {
					"type" : "Point",
					"coordinates" : [ 142.87376445076887, -34.520263652263665 ]
				},
				"properties" : {
					"fid" : 706,
					"stationid" : 0,
					"stationnam" : "Benanee",
					"stationtyp" : 1,
					"brigadeid" : 14701,
					"lastupdate" : null,
					"dateverifi" : null
				}
			},
			{
				"type" : "Feature",
				"geometry" : {
					"type" : "Point",
					"coordinates" : [ 142.744286619532, -34.57730357122012 ]
				},
				"properties" : {
					"fid" : 707,
					"stationid" : 0,
					"stationnam" : "Euston Town",
					"stationtyp" : 1,
					"brigadeid" : 14704,
					"lastupdate" : null,
					"dateverifi" : null
				}
			},
			{
				"type" : "Feature",
				"geometry" : {
					"type" : "Point",
					"coordinates" : [ 143.07840520573572, -34.55865024163284 ]
				},
				"properties" : {
					"fid" : 708,
					"stationid" : 0,
					"stationnam" : "Sturt Highway West",
					"stationtyp" : 1,
					"brigadeid" : 14708,
					"lastupdate" : null,
					"dateverifi" : null
				}
			},
			{
				"type" : "Feature",
				"geometry" : {
					"type" : "Point",
					"coordinates" : [ 149.95418740972121, -30.59794652218637 ]
				},
				"properties" : {
					"fid" : 709,
					"stationid" : 0,
					"stationnam" : "Baan Baa",
					"stationtyp" : 1,
					"brigadeid" : 9201,
					"lastupdate" : null,
					"dateverifi" : null
				}
			},
			{
				"type" : "Feature",
				"geometry" : {
					"type" : "Point",
					"coordinates" : [ 150.12166528372603, -30.695419397357895 ]
				},
				"properties" : {
					"fid" : 710,
					"stationid" : 0,
					"stationnam" : "Nandewar",
					"stationtyp" : 1,
					"brigadeid" : 9225,
					"lastupdate" : null,
					"dateverifi" : null
				}
			},
			{
				"type" : "Feature",
				"geometry" : {
					"type" : "Point",
					"coordinates" : [ 148.97347667530835, -30.60842199355215 ]
				},
				"properties" : {
					"fid" : 711,
					"stationid" : 0,
					"stationnam" : "Gwabegar",
					"stationtyp" : 1,
					"brigadeid" : 9217,
					"lastupdate" : null,
					"dateverifi" : null
				}
			},
			{
				"type" : "Feature",
				"geometry" : {
					"type" : "Point",
					"coordinates" : [ 148.8945475131573, -30.353639865263574 ]
				},
				"properties" : {
					"fid" : 712,
					"stationid" : 0,
					"stationnam" : "Pilliga - Narrabri",
					"stationtyp" : 1,
					"brigadeid" : 9227,
					"lastupdate" : null,
					"dateverifi" : null
				}
			},
			{
				"type" : "Feature",
				"geometry" : {
					"type" : "Point",
					"coordinates" : [ 149.22066652723856, -30.330586772537874 ]
				},
				"properties" : {
					"fid" : 713,
					"stationid" : 0,
					"stationnam" : "Merimborough",
					"stationtyp" : 1,
					"brigadeid" : 9222,
					"lastupdate" : null,
					"dateverifi" : null
				}
			},
			{
				"type" : "Feature",
				"geometry" : {
					"type" : "Point",
					"coordinates" : [ 149.76087936079398, -30.348422648062865 ]
				},
				"properties" : {
					"fid" : 714,
					"stationid" : 0,
					"stationnam" : "Narrabri HQ",
					"stationtyp" : 1,
					"brigadeid" : 9218,
					"lastupdate" : null,
					"dateverifi" : null
				}
			},
			{
				"type" : "Feature",
				"geometry" : {
					"type" : "Point",
					"coordinates" : [ 149.79147314027327, -29.919004580080404 ]
				},
				"properties" : {
					"fid" : 715,
					"stationid" : 0,
					"stationnam" : "Bellata Town",
					"stationtyp" : 1,
					"brigadeid" : 9204,
					"lastupdate" : null,
					"dateverifi" : null
				}
			},
			{
				"type" : "Feature",
				"geometry" : {
					"type" : "Point",
					"coordinates" : [ 150.70255920904043, -32.51813886226227 ]
				},
				"properties" : {
					"fid" : 717,
					"stationid" : 0,
					"stationnam" : "Martindale",
					"stationtyp" : 1,
					"brigadeid" : 9010,
					"lastupdate" : null,
					"dateverifi" : null
				}
			},
			{
				"type" : "Feature",
				"geometry" : {
					"type" : "Point",
					"coordinates" : [ 150.73045275788857, -32.458617636439186 ]
				},
				"properties" : {
					"fid" : 718,
					"stationid" : 0,
					"stationnam" : "Bureen",
					"stationtyp" : 1,
					"brigadeid" : 9003,
					"lastupdate" : null,
					"dateverifi" : null
				}
			},
			{
				"type" : "Feature",
				"geometry" : {
					"type" : "Point",
					"coordinates" : [ 151.64485702013548, -32.69439076316436 ]
				},
				"properties" : {
					"fid" : 719,
					"stationid" : 0,
					"stationnam" : "Bowthorne/Hinton",
					"stationtyp" : 1,
					"brigadeid" : 10202,
					"lastupdate" : null,
					"dateverifi" : null
				}
			},
			{
				"type" : "Feature",
				"geometry" : {
					"type" : "Point",
					"coordinates" : [ 151.86788981026666, -32.741176339656846 ]
				},
				"properties" : {
					"fid" : 720,
					"stationid" : 0,
					"stationnam" : "Medowie",
					"stationtyp" : 1,
					"brigadeid" : 10208,
					"lastupdate" : null,
					"dateverifi" : null
				}
			},
			{
				"type" : "Feature",
				"geometry" : {
					"type" : "Point",
					"coordinates" : [ 152.03580219171783, -32.732013991792975 ]
				},
				"properties" : {
					"fid" : 721,
					"stationid" : 0,
					"stationnam" : "Lemon Tree Passage",
					"stationtyp" : 1,
					"brigadeid" : 10207,
					"lastupdate" : "20160721000000",
					"dateverifi" : null
				}
			},
			{
				"type" : "Feature",
				"geometry" : {
					"type" : "Point",
					"coordinates" : [ 152.0784877158355, -32.72560816492562 ]
				},
				"properties" : {
					"fid" : 722,
					"stationid" : 0,
					"stationnam" : "Soldiers Point",
					"stationtyp" : 1,
					"brigadeid" : 10211,
					"lastupdate" : null,
					"dateverifi" : null
				}
			},
			{
				"type" : "Feature",
				"geometry" : {
					"type" : "Point",
					"coordinates" : [ 152.16834052649418, -32.74930996742147 ]
				},
				"properties" : {
					"fid" : 723,
					"stationid" : 0,
					"stationnam" : "Fingal Bay",
					"stationtyp" : 1,
					"brigadeid" : 10204,
					"lastupdate" : null,
					"dateverifi" : null
				}
			},
			{
				"type" : "Feature",
				"geometry" : {
					"type" : "Point",
					"coordinates" : [ 151.96132854707488, -32.65610881351267 ]
				},